$GPGGA,011310.00,3354.9990,S,15059.6067,E,1,19,0.6,13.99,M,22.60,M,,*4E
$GPRMC,011310.00,A,3354.9989843,S,15059.6066898,E,0.068,227.3,220519,0.0,E,A*25
$GPVTG,227.308,T,227.308,M,0.068,N,0.125,K,A*2B
$GPGGA,011311.00,3354.9990,S,15059.6067,E,1,19,0.6,13.85,M,22.60,M,,*42
$GPRMC,011311.00,A,3354.9989963,S,15059.6067139,E,0.035,221.4,220519,0.0,E,A*2D
$GPVTG,221.361,T,221.361,M,0.035,N,0.064,K,A*27
$GPGGA,011312.00,3354.9990,S,15059.6067,E,1,19,0.6,13.74,M,22.60,M,,*4F
$GPRMC,011312.00,A,3354.9990085,S,15059.6067346,E,0.012,337.3,220519,0.0,E,A*29
$GPVTG,337.303,T,337.303,M,0.012,N,0.023,K,A*21
$GPGGA,011313.00,3354.9990,S,15059.6068,E,1,19,0.6,13.57,M,22.60,M,,*40
$GPRMC,011313.00,A,3354.9990088,S,15059.6067557,E,0.066,27.4,220519,0.0,E,A*15
$GPVTG,27.418,T,27.418,M,0.066,N,0.123,K,A*23
$GPGGA,011314.00,3354.9990,S,15059.6068,E,1,19,0.6,13.41,M,22.60,M,,*40
$GPRMC,011314.00,A,3354.9990267,S,15059.6067826,E,0.025,234.8,220519,0.0,E,A*21
$GPVTG,234.765,T,234.765,M,0.025,N,0.047,K,A*27
$GPGGA,011315.00,3354.9990,S,15059.6065,E,1,19,0.6,12.68,M,22.60,M,,*46
$GPRMC,011315.00,A,3354.9990335,S,15059.6065408,E,0.035,16.1,220519,0.0,E,A*1E
$GPVTG,16.089,T,16.089,M,0.035,N,0.066,K,A*25
$GPGGA,011316.00,3354.9990,S,15059.6065,E,1,19,0.6,12.66,M,22.60,M,,*4B
$GPRMC,011316.00,A,3354.9990237,S,15059.6065165,E,0.044,343.7,220519,0.0,E,A*23
$GPVTG,343.720,T,343.720,M,0.044,N,0.082,K,A*29
$GPGGA,011317.00,3354.9990,S,15059.6065,E,1,19,0.6,12.61,M,22.60,M,,*4D
$GPRMC,011317.00,A,3354.9990312,S,15059.6065091,E,0.052,2.9,220519,0.0,E,A*21
$GPVTG,2.860,T,2.860,M,0.052,N,0.096,K,A*2B
$GPGGA,011318.00,3354.9990,S,15059.6065,E,1,19,0.6,12.55,M,22.60,M,,*45
$GPRMC,011318.00,A,3354.9990305,S,15059.6064958,E,0.034,168.0,220519,0.0,E,A*21
$GPVTG,168.022,T,168.022,M,0.034,N,0.063,K,A*21
$GPGGA,011319.00,3354.9990,S,15059.6065,E,1,19,0.6,12.44,M,22.60,M,,*44
$GPRMC,011319.00,A,3354.9990451,S,15059.6065046,E,0.009,32.9,220519,0.0,E,A*18
$GPVTG,32.863,T,32.863,M,0.009,N,0.016,K,A*2D
$GPGGA,011320.00,3354.9990,S,15059.6065,E,1,19,0.6,12.37,M,22.60,M,,*4A
$GPRMC,011320.00,A,3354.9990480,S,15059.6065014,E,0.014,149.4,220519,0.0,E,A*25
$GPVTG,149.365,T,149.365,M,0.014,N,0.025,K,A*21
$GPGGA,011321.00,3354.9990,S,15059.6065,E,1,19,0.6,12.29,M,22.60,M,,*44
$GPRMC,011321.00,A,3354.9990479,S,15059.6065013,E,0.009,201.3,220519,0.0,E,A*21
$GPVTG,201.269,T,201.269,M,0.009,N,0.017,K,A*2C
$GPGGA,011322.00,3354.9991,S,15059.6065,E,1,19,0.6,12.22,M,22.60,M,,*4D
$GPRMC,011322.00,A,3354.9990540,S,15059.6065033,E,0.042,250.9,220519,0.0,E,A*2A
$GPVTG,250.883,T,250.883,M,0.042,N,0.077,K,A*25
$GPGGA,011323.00,3354.9990,S,15059.6065,E,1,19,0.6,12.13,M,22.60,M,,*4F
$GPRMC,011323.00,A,3354.9990460,S,15059.6065052,E,0.031,122.0,220519,0.0,E,A*24
$GPVTG,122.019,T,122.019,M,0.031,N,0.057,K,A*23
$GPGGA,011324.00,3354.9990,S,15059.6065,E,1,19,0.6,12.07,M,22.60,M,,*4D
$GPRMC,011324.00,A,3354.9990476,S,15059.6064999,E,0.025,47.5,220519,0.0,E,A*19
$GPVTG,47.522,T,47.522,M,0.025,N,0.047,K,A*27
$GPGGA,011325.00,3354.9991,S,15059.6065,E,1,19,0.6,12.02,M,22.60,M,,*48
$GPRMC,011325.00,A,3354.9990551,S,15059.6064944,E,0.044,198.3,220519,0.0,E,A*2E
$GPVTG,198.310,T,198.310,M,0.044,N,0.082,K,A*29
$GPGGA,011326.00,3354.9991,S,15059.6065,E,1,19,0.6,11.94,M,22.60,M,,*47
$GPRMC,011326.00,A,3354.9990598,S,15059.6064997,E,0.034,280.0,220519,0.0,E,A*28
$GPVTG,280.048,T,280.048,M,0.034,N,0.062,K,A*20
$GPGGA,011327.00,3354.9991,S,15059.6065,E,1,19,0.6,11.89,M,22.60,M,,*4A
$GPRMC,011327.00,A,3354.9990577,S,15059.6064918,E,0.029,76.1,220519,0.0,E,A*19
$GPVTG,76.058,T,76.058,M,0.029,N,0.054,K,A*29
$GPGGA,011328.00,3354.9991,S,15059.6065,E,1,19,0.6,11.82,M,22.60,M,,*4E
$GPRMC,011328.00,A,3354.9990584,S,15059.6064817,E,0.061,151.3,220519,0.0,E,A*2E
$GPVTG,151.257,T,151.257,M,0.061,N,0.113,K,A*27
$GPGGA,011329.00,3354.9991,S,15059.6065,E,1,19,0.6,11.74,M,22.60,M,,*46
$GPRMC,011329.00,A,3354.9990654,S,15059.6064880,E,0.011,275.5,220519,0.0,E,A*2B
$GPVTG,275.478,T,275.478,M,0.011,N,0.020,K,A*21
$GPGGA,011330.00,3354.9991,S,15059.6065,E,1,19,0.6,11.67,M,22.60,M,,*4C
$GPRMC,011330.00,A,3354.9990765,S,15059.6064905,E,0.054,346.7,220519,0.0,E,A*2E
$GPVTG,346.725,T,346.725,M,0.054,N,0.099,K,A*22
$GPGGA,011331.00,3354.9991,S,15059.6065,E,1,19,0.6,11.60,M,22.60,M,,*4A
$GPRMC,011331.00,A,3354.9990812,S,15059.6064920,E,0.017,9.2,220519,0.0,E,A*2D
$GPVTG,9.182,T,9.182,M,0.017,N,0.031,K,A*27
$GPGGA,011332.00,3354.9991,S,15059.6065,E,1,19,0.6,11.51,M,22.60,M,,*4B
$GPRMC,011332.00,A,3354.9990998,S,15059.6065029,E,0.051,182.5,220519,0.0,E,A*2B
$GPVTG,182.506,T,182.506,M,0.051,N,0.095,K,A*2B
$GPGGA,011333.00,3354.9991,S,15059.6065,E,1,19,0.6,11.50,M,22.60,M,,*4B
$GPRMC,011333.00,A,3354.9990861,S,15059.6064873,E,0.022,23.9,220519,0.0,E,A*19
$GPVTG,23.940,T,23.940,M,0.022,N,0.041,K,A*26
$GPGGA,011334.00,3354.9991,S,15059.6065,E,1,19,0.6,11.39,M,22.60,M,,*43
$GPRMC,011334.00,A,3354.9991081,S,15059.6065014,E,0.060,179.1,220519,0.0,E,A*21
$GPVTG,179.133,T,179.133,M,0.060,N,0.111,K,A*24
$GPGGA,011335.00,3354.9991,S,15059.6065,E,1,19,0.6,11.40,M,22.60,M,,*4C
$GPRMC,011335.00,A,3354.9991085,S,15059.6064814,E,0.062,154.0,220519,0.0,E,A*21
$GPVTG,153.974,T,153.974,M,0.062,N,0.115,K,A*22
$GPGGA,011336.00,3354.9987,S,15059.6056,E,1,18,0.7,13.76,M,22.60,M,,*4F
$GPRMC,011336.00,A,3354.9986853,S,15059.6056323,E,0.018,227.0,220519,0.0,E,A*23
$GPVTG,227.004,T,227.004,M,0.018,N,0.033,K,A*2A
$GPGGA,011337.00,3354.9990,S,15059.6062,E,1,19,0.6,11.93,M,22.60,M,,*46
$GPRMC,011337.00,A,3354.9989943,S,15059.6062435,E,0.061,259.1,220519,0.0,E,A*2C
$GPVTG,259.114,T,259.114,M,0.061,N,0.112,K,A*26
$GPGGA,011338.00,3354.9991,S,15059.6065,E,1,19,0.6,11.12,M,22.60,M,,*46
$GPRMC,011338.00,A,3354.9991278,S,15059.6065045,E,0.100,151.4,220519,0.0,E,A*25
$GPVTG,151.405,T,151.405,M,0.100,N,0.185,K,A*2E
$GPGGA,011339.00,3354.9986,S,15059.6056,E,1,18,0.7,13.48,M,22.60,M,,*4C
$GPRMC,011339.00,A,3354.9986495,S,15059.6056037,E,0.010,327.5,220519,0.0,E,A*20
$GPVTG,327.473,T,327.473,M,0.010,N,0.019,K,A*2A
$GPGGA,011340.00,3354.9987,S,15059.6056,E,1,19,0.6,13.37,M,22.60,M,,*4B
$GPRMC,011340.00,A,3354.9986622,S,15059.6056177,E,0.040,279.6,220519,0.0,E,A*29
$GPVTG,279.639,T,279.639,M,0.040,N,0.074,K,A*24
$GPGGA,011341.00,3354.9986,S,15059.6056,E,1,18,0.7,13.44,M,22.60,M,,*4F
$GPRMC,011341.00,A,3354.9986358,S,15059.6055819,E,0.064,2.0,220519,0.0,E,A*2C
$GPVTG,2.031,T,2.031,M,0.064,N,0.118,K,A*29
$GPGGA,011342.00,3354.9987,S,15059.6055,E,1,18,0.7,13.50,M,22.60,M,,*4B
$GPRMC,011342.00,A,3354.9986896,S,15059.6055411,E,0.024,10.5,220519,0.0,E,A*10
$GPVTG,10.497,T,10.497,M,0.024,N,0.045,K,A*24
$GPGGA,011343.00,3354.9986,S,15059.6056,E,1,18,0.7,13.76,M,22.60,M,,*4C
$GPRMC,011343.00,A,3354.9985945,S,15059.6055609,E,0.136,21.3,220519,0.0,E,A*10
$GPVTG,21.254,T,21.254,M,0.136,N,0.253,K,A*23
$GPGGA,011344.00,3354.9986,S,15059.6056,E,1,19,0.6,13.70,M,22.60,M,,*4D
$GPRMC,011344.00,A,3354.9986116,S,15059.6055759,E,0.052,167.8,220519,0.0,E,A*25
$GPVTG,167.807,T,167.807,M,0.052,N,0.097,K,A*2A
$GPGGA,011345.00,3354.9986,S,15059.6056,E,1,18,0.7,13.70,M,22.60,M,,*4C
$GPRMC,011345.00,A,3354.9985968,S,15059.6055550,E,0.047,35.6,220519,0.0,E,A*11
$GPVTG,35.562,T,35.562,M,0.047,N,0.088,K,A*20
$GPGGA,011346.00,3354.9986,S,15059.6055,E,1,18,0.7,13.69,M,22.60,M,,*44
$GPRMC,011346.00,A,3354.9985959,S,15059.6055483,E,0.133,202.1,220519,0.0,E,A*2C
$GPVTG,202.145,T,202.145,M,0.133,N,0.246,K,A*22
$GPGGA,011347.00,3354.9989,S,15059.6055,E,1,18,0.7,12.31,M,22.60,M,,*46
$GPRMC,011347.00,A,3354.9989217,S,15059.6054945,E,0.093,194.0,220519,0.0,E,A*20
$GPVTG,193.989,T,193.989,M,0.093,N,0.173,K,A*2C
$GPGGA,011348.00,3354.9989,S,15059.6055,E,1,19,0.6,12.22,M,22.60,M,,*4B
$GPRMC,011348.00,A,3354.9989334,S,15059.6055072,E,0.055,138.6,220519,0.0,E,A*29
$GPVTG,138.619,T,138.619,M,0.055,N,0.102,K,A*20
$GPGGA,011349.00,3354.9991,S,15059.6058,E,1,19,0.6,11.18,M,22.60,M,,*44
$GPRMC,011349.00,A,3354.9991279,S,15059.6058086,E,0.035,278.9,220519,0.0,E,A*21
$GPVTG,278.868,T,278.868,M,0.035,N,0.065,K,A*26
$GPGGA,011350.00,3354.9989,S,15059.6054,E,1,18,0.7,12.39,M,22.60,M,,*49
$GPRMC,011350.00,A,3354.9989309,S,15059.6054355,E,0.023,102.1,220519,0.0,E,A*26
$GPVTG,102.140,T,102.140,M,0.023,N,0.042,K,A*24
$GPGGA,011351.00,3354.9989,S,15059.6056,E,1,19,0.6,13.22,M,22.60,M,,*41
$GPRMC,011351.00,A,3354.9989123,S,15059.6056107,E,0.075,221.1,220519,0.0,E,A*2B
$GPVTG,221.085,T,221.085,M,0.075,N,0.139,K,A*2A
$GPGGA,011352.00,3354.9989,S,15059.6055,E,1,18,0.7,12.56,M,22.60,M,,*43
$GPRMC,011352.00,A,3354.9989233,S,15059.6054666,E,0.041,60.8,220519,0.0,E,A*11
$GPVTG,60.798,T,60.798,M,0.041,N,0.075,K,A*24
$GPGGA,011353.00,3354.9988,S,15059.6060,E,1,17,0.7,15.69,M,22.60,M,,*41
$GPRMC,011353.00,A,3354.9987884,S,15059.6060213,E,0.025,356.4,220519,0.0,E,A*21
$GPVTG,356.391,T,356.391,M,0.025,N,0.047,K,A*27
$GPGGA,011354.00,3354.9988,S,15059.6060,E,1,17,0.7,15.70,M,22.60,M,,*4E
$GPRMC,011354.00,A,3354.9987897,S,15059.6060176,E,0.036,20.4,220519,0.0,E,A*14
$GPVTG,20.353,T,20.353,M,0.036,N,0.068,K,A*28
$GPGGA,011355.00,3354.9988,S,15059.6060,E,1,18,0.6,15.62,M,22.60,M,,*42
$GPRMC,011355.00,A,3354.9988058,S,15059.6060423,E,0.032,20.0,220519,0.0,E,A*14
$GPVTG,19.969,T,19.969,M,0.032,N,0.060,K,A*24
$GPGGA,011356.00,3354.9988,S,15059.6060,E,1,17,0.7,15.71,M,22.60,M,,*4D
$GPRMC,011356.00,A,3354.9987903,S,15059.6060206,E,0.020,124.9,220519,0.0,E,A*21
$GPVTG,124.863,T,124.863,M,0.020,N,0.037,K,A*25
$GPGGA,011357.00,3354.9988,S,15059.6060,E,1,17,0.7,15.70,M,22.60,M,,*4D
$GPRMC,011357.00,A,3354.9987896,S,15059.6060225,E,0.011,314.5,220519,0.0,E,A*23
$GPVTG,314.460,T,314.460,M,0.011,N,0.020,K,A*21
$GPGGA,011358.00,3354.9988,S,15059.6060,E,1,18,0.7,15.66,M,22.60,M,,*4A
$GPRMC,011358.00,A,3354.9987821,S,15059.6060287,E,0.026,240.3,220519,0.0,E,A*2A
$GPVTG,240.343,T,240.343,M,0.026,N,0.049,K,A*2A
$GPGGA,011359.00,3354.9988,S,15059.6061,E,1,19,0.6,15.55,M,22.60,M,,*4A
$GPRMC,011359.00,A,3354.9987976,S,15059.6060595,E,0.024,75.8,220519,0.0,E,A*11
$GPVTG,75.797,T,75.797,M,0.024,N,0.045,K,A*24
$GPGGA,011400.00,3354.9991,S,15059.6066,E,1,19,0.6,13.69,M,22.60,M,,*47
$GPRMC,011400.00,A,3354.9991485,S,15059.6066363,E,0.013,325.8,220519,0.0,E,A*27
$GPVTG,325.812,T,325.812,M,0.013,N,0.025,K,A*26
$GPGGA,011401.00,3354.9993,S,15059.6069,E,1,19,0.6,12.87,M,22.60,M,,*4A
$GPRMC,011401.00,A,3354.9993021,S,15059.6068857,E,0.060,312.9,220519,0.0,E,A*2D
$GPVTG,312.877,T,312.877,M,0.060,N,0.112,K,A*27
$GPGGA,011402.00,3354.9992,S,15059.6068,E,1,19,0.6,13.21,M,22.60,M,,*44
$GPRMC,011402.00,A,3354.9992350,S,15059.6067773,E,0.046,304.8,220519,0.0,E,A*2E
$GPVTG,304.758,T,304.758,M,0.046,N,0.086,K,A*2F
$GPGGA,011403.00,3354.9993,S,15059.6069,E,1,19,0.6,12.89,M,22.60,M,,*46
$GPRMC,011403.00,A,3354.9992870,S,15059.6068715,E,0.061,135.0,220519,0.0,E,A*24
$GPVTG,135.016,T,135.016,M,0.061,N,0.113,K,A*27
$GPGGA,011404.00,3354.9992,S,15059.6068,E,1,19,0.6,13.18,M,22.60,M,,*48
$GPRMC,011404.00,A,3354.9992396,S,15059.6067823,E,0.023,320.1,220519,0.0,E,A*24
$GPVTG,320.129,T,320.129,M,0.023,N,0.043,K,A*25
$GPGGA,011405.00,3354.9993,S,15059.6069,E,1,19,0.6,12.88,M,22.60,M,,*41
$GPRMC,011405.00,A,3354.9993011,S,15059.6068752,E,0.037,335.0,220519,0.0,E,A*2E
$GPVTG,334.962,T,334.962,M,0.037,N,0.069,K,A*28
$GPGGA,011406.00,3354.9993,S,15059.6069,E,1,19,0.6,12.82,M,22.60,M,,*48
$GPRMC,011406.00,A,3354.9993150,S,15059.6068931,E,0.029,119.3,220519,0.0,E,A*22
$GPVTG,119.253,T,119.253,M,0.029,N,0.053,K,A*2E
$GPGGA,011407.00,3354.9994,S,15059.6070,E,1,19,0.6,12.35,M,22.60,M,,*4A
$GPRMC,011407.00,A,3354.9994101,S,15059.6070399,E,0.025,292.9,220519,0.0,E,A*27
$GPVTG,292.866,T,292.866,M,0.025,N,0.046,K,A*26
$GPGGA,011408.00,3354.9994,S,15059.6070,E,1,19,0.6,12.49,M,22.60,M,,*4E
$GPRMC,011408.00,A,3354.9993795,S,15059.6069907,E,0.030,94.3,220519,0.0,E,A*1B
$GPVTG,94.280,T,94.280,M,0.030,N,0.055,K,A*20
$GPGGA,011409.00,3354.9994,S,15059.6070,E,1,19,0.6,12.33,M,22.60,M,,*42
$GPRMC,011409.00,A,3354.9994080,S,15059.6070409,E,0.005,32.3,220519,0.0,E,A*1F
$GPVTG,32.286,T,32.286,M,0.005,N,0.010,K,A*27
$GPGGA,011410.00,3354.9994,S,15059.6070,E,1,19,0.6,12.46,M,22.60,M,,*48
$GPRMC,011410.00,A,3354.9993776,S,15059.6069960,E,0.062,112.9,220519,0.0,E,A*2C
$GPVTG,112.921,T,112.921,M,0.062,N,0.114,K,A*23
$GPGGA,011411.00,3354.9994,S,15059.6070,E,1,19,0.6,12.40,M,22.60,M,,*4F
$GPRMC,011411.00,A,3354.9993910,S,15059.6070142,E,0.023,237.8,220519,0.0,E,A*23
$GPVTG,237.816,T,237.816,M,0.023,N,0.042,K,A*24
$GPGGA,011412.00,3354.9994,S,15059.6070,E,1,19,0.6,12.42,M,22.60,M,,*4E
$GPRMC,011412.00,A,3354.9993929,S,15059.6070116,E,0.030,71.0,220519,0.0,E,A*11
$GPVTG,71.048,T,71.048,M,0.030,N,0.055,K,A*20
$GPGGA,011413.00,3354.9994,S,15059.6070,E,1,19,0.6,12.53,M,22.60,M,,*4F
$GPRMC,011413.00,A,3354.9993711,S,15059.6069766,E,0.020,290.5,220519,0.0,E,A*25
$GPVTG,290.453,T,290.453,M,0.020,N,0.037,K,A*25
$GPGGA,011414.00,3354.9994,S,15059.6070,E,1,19,0.6,12.45,M,22.60,M,,*4F
$GPRMC,011414.00,A,3354.9993841,S,15059.6070022,E,0.016,60.4,220519,0.0,E,A*1E
$GPVTG,60.444,T,60.444,M,0.016,N,0.029,K,A*2F
$GPGGA,011415.00,3354.9994,S,15059.6070,E,1,19,0.6,12.43,M,22.60,M,,*48
$GPRMC,011415.00,A,3354.9993843,S,15059.6070070,E,0.042,267.0,220519,0.0,E,A*2A
$GPVTG,266.992,T,266.992,M,0.042,N,0.078,K,A*2A
$GPGGA,011416.00,3354.9995,S,15059.6064,E,1,20,0.6,10.25,M,22.60,M,,*47
$GPRMC,011416.00,A,3354.9995218,S,15059.6063763,E,0.038,160.6,220519,0.0,E,A*23
$GPVTG,160.569,T,160.569,M,0.038,N,0.071,K,A*2E
$GPGGA,011417.00,3354.9995,S,15059.6064,E,1,20,0.6,10.35,M,22.60,M,,*47
$GPRMC,011417.00,A,3354.9995288,S,15059.6064486,E,0.011,204.5,220519,0.0,E,A*2D
$GPVTG,204.467,T,204.467,M,0.011,N,0.020,K,A*21
$GPGGA,011418.00,3354.9995,S,15059.6064,E,1,20,0.6,10.33,M,22.60,M,,*4E
$GPRMC,011418.00,A,3354.9995404,S,15059.6064454,E,0.048,359.4,220519,0.0,E,A*2B
$GPVTG,359.361,T,359.361,M,0.048,N,0.089,K,A*2E
$GPGGA,011419.00,3354.9995,S,15059.6064,E,1,20,0.6,10.40,M,22.60,M,,*4B
$GPRMC,011419.00,A,3354.9995262,S,15059.6064009,E,0.016,292.0,220519,0.0,E,A*29
$GPVTG,291.976,T,291.976,M,0.016,N,0.030,K,A*27
$GPGGA,011420.00,3354.9995,S,15059.6064,E,1,20,0.6,10.41,M,22.60,M,,*40
$GPRMC,011420.00,A,3354.9995135,S,15059.6063721,E,0.017,35.0,220519,0.0,E,A*16
$GPVTG,35.025,T,35.025,M,0.017,N,0.032,K,A*24
$GPGGA,011421.00,3354.9995,S,15059.6063,E,1,20,0.6,10.46,M,22.60,M,,*41
$GPRMC,011421.00,A,3354.9994992,S,15059.6063212,E,0.013,153.8,220519,0.0,E,A*2B
$GPVTG,153.811,T,153.811,M,0.013,N,0.024,K,A*27
$GPGGA,011422.00,3354.9995,S,15059.6063,E,1,20,0.6,10.50,M,22.60,M,,*45
$GPRMC,011422.00,A,3354.9994930,S,15059.6063201,E,0.015,99.1,220519,0.0,E,A*1A
$GPVTG,99.104,T,99.104,M,0.015,N,0.028,K,A*2D
$GPGGA,011423.00,3354.9995,S,15059.6063,E,1,20,0.6,10.55,M,22.60,M,,*41
$GPRMC,011423.00,A,3354.9994894,S,15059.6063128,E,0.012,11.4,220519,0.0,E,A*1E
$GPVTG,11.401,T,11.401,M,0.012,N,0.023,K,A*21
$GPGGA,011424.00,3354.9995,S,15059.6063,E,1,20,0.6,10.63,M,22.60,M,,*43
$GPRMC,011424.00,A,3354.9994772,S,15059.6062851,E,0.050,65.0,220519,0.0,E,A*19
$GPVTG,64.966,T,64.966,M,0.050,N,0.092,K,A*2D
$GPGGA,011425.00,3354.9995,S,15059.6063,E,1,20,0.6,10.66,M,22.60,M,,*47
$GPRMC,011425.00,A,3354.9994704,S,15059.6062641,E,0.031,342.7,220519,0.0,E,A*20
$GPVTG,342.740,T,342.740,M,0.031,N,0.058,K,A*2C
$GPGGA,011426.00,3354.9995,S,15059.6063,E,1,20,0.6,10.72,M,22.60,M,,*41
$GPRMC,011426.00,A,3354.9994642,S,15059.6062603,E,0.022,90.1,220519,0.0,E,A*1E
$GPVTG,90.141,T,90.141,M,0.022,N,0.041,K,A*26
$GPGGA,011427.00,3354.9994,S,15059.6063,E,1,20,0.6,10.85,M,22.60,M,,*49
$GPRMC,011427.00,A,3354.9994415,S,15059.6062722,E,0.028,319.1,220519,0.0,E,A*25
$GPVTG,319.096,T,319.096,M,0.028,N,0.053,K,A*2F
$GPGGA,011428.00,3354.9994,S,15059.6063,E,1,20,0.6,10.95,M,22.60,M,,*47
$GPRMC,011428.00,A,3354.9994256,S,15059.6062660,E,0.034,241.4,220519,0.0,E,A*28
$GPVTG,241.447,T,241.447,M,0.034,N,0.062,K,A*20
$GPGGA,011429.00,3354.9994,S,15059.6063,E,1,20,0.6,10.97,M,22.60,M,,*44
$GPRMC,011429.00,A,3354.9994182,S,15059.6062729,E,0.029,174.6,220519,0.0,E,A*24
$GPVTG,174.631,T,174.631,M,0.029,N,0.054,K,A*29
$GPGGA,011430.00,3354.9994,S,15059.6063,E,1,20,0.6,11.02,M,22.60,M,,*41
$GPRMC,011430.00,A,3354.9994041,S,15059.6062559,E,0.040,247.6,220519,0.0,E,A*2B
$GPVTG,247.638,T,247.638,M,0.040,N,0.075,K,A*25
$GPGGA,011431.00,3354.9994,S,15059.6063,E,1,20,0.6,11.11,M,22.60,M,,*42
$GPRMC,011431.00,A,3354.9993966,S,15059.6062627,E,0.002,167.9,220519,0.0,E,A*23
$GPVTG,167.873,T,167.873,M,0.002,N,0.004,K,A*25
$GPGGA,011432.00,3354.9994,S,15059.6063,E,1,20,0.6,11.17,M,22.60,M,,*47
$GPRMC,011432.00,A,3354.9993880,S,15059.6062804,E,0.027,273.8,220519,0.0,E,A*26
$GPVTG,273.804,T,273.804,M,0.027,N,0.051,K,A*22
$GPGGA,011433.00,3354.9994,S,15059.6063,E,1,20,0.6,11.29,M,22.60,M,,*4B
$GPRMC,011433.00,A,3354.9993693,S,15059.6062637,E,0.013,41.1,220519,0.0,E,A*18
$GPVTG,41.092,T,41.092,M,0.013,N,0.025,K,A*26
$GPGGA,011434.00,3354.9994,S,15059.6063,E,1,20,0.6,11.36,M,22.60,M,,*42
$GPRMC,011434.00,A,3354.9993631,S,15059.6062590,E,0.040,253.3,220519,0.0,E,A*2C
$GPVTG,253.292,T,253.292,M,0.040,N,0.074,K,A*24
$GPGGA,011435.00,3354.9994,S,15059.6062,E,1,20,0.6,11.41,M,22.60,M,,*42
$GPRMC,011435.00,A,3354.9993536,S,15059.6062466,E,0.033,127.7,220519,0.0,E,A*21
$GPVTG,127.713,T,127.713,M,0.033,N,0.062,K,A*27
$GPGGA,011436.00,3354.9993,S,15059.6062,E,1,20,0.6,11.49,M,22.60,M,,*4E
$GPRMC,011436.00,A,3354.9993459,S,15059.6062429,E,0.013,126.9,220519,0.0,E,A*2C
$GPVTG,126.937,T,126.937,M,0.013,N,0.024,K,A*27
$GPGGA,011437.00,3354.9993,S,15059.6062,E,1,20,0.6,11.55,M,22.60,M,,*42
$GPRMC,011437.00,A,3354.9993396,S,15059.6062229,E,0.061,6.3,220519,0.0,E,A*23
$GPVTG,6.315,T,6.315,M,0.061,N,0.114,K,A*20
$GPGGA,011438.00,3354.9993,S,15059.6062,E,1,20,0.6,11.61,M,22.60,M,,*4A
$GPRMC,011438.00,A,3354.9993361,S,15059.6062251,E,0.048,346.2,220519,0.0,E,A*26
$GPVTG,346.225,T,346.225,M,0.048,N,0.088,K,A*2F
$GPGGA,011439.00,3354.9993,S,15059.6062,E,1,20,0.6,11.54,M,22.60,M,,*4D
$GPRMC,011439.00,A,3354.9993019,S,15059.6062349,E,0.038,56.3,220519,0.0,E,A*17
$GPVTG,56.341,T,56.341,M,0.038,N,0.070,K,A*2F
$GPGGA,011440.00,3354.9993,S,15059.6062,E,1,20,0.6,11.58,M,22.60,M,,*4F
$GPRMC,011440.00,A,3354.9992997,S,15059.6062216,E,0.037,3.3,220519,0.0,E,A*23
$GPVTG,3.320,T,3.320,M,0.037,N,0.068,K,A*29
$GPGGA,011441.00,3354.9993,S,15059.6062,E,1,20,0.6,11.57,M,22.60,M,,*41
$GPRMC,011441.00,A,3354.9992933,S,15059.6062289,E,0.028,231.4,220519,0.0,E,A*20
$GPVTG,231.437,T,231.437,M,0.028,N,0.052,K,A*2E
$GPGGA,011442.00,3354.9993,S,15059.6062,E,1,20,0.6,11.57,M,22.60,M,,*42
$GPRMC,011442.00,A,3354.9992921,S,15059.6062156,E,0.052,196.8,220519,0.0,E,A*2E
$GPVTG,196.802,T,196.802,M,0.052,N,0.097,K,A*2A
$GPGGA,011443.00,3354.9993,S,15059.6062,E,1,20,0.6,11.64,M,22.60,M,,*43
$GPRMC,011443.00,A,3354.9993043,S,15059.6061913,E,0.016,275.5,220519,0.0,E,A*2A
$GPVTG,275.533,T,275.533,M,0.016,N,0.029,K,A*2F
$GPGGA,011444.00,3354.9992,S,15059.6063,E,1,20,0.6,11.74,M,22.60,M,,*45
$GPRMC,011444.00,A,3354.9991682,S,15059.6063054,E,0.015,243.4,220519,0.0,E,A*2B
$GPVTG,243.434,T,243.434,M,0.015,N,0.028,K,A*2D
$GPGGA,011445.00,3354.9992,S,15059.6063,E,1,20,0.6,11.78,M,22.60,M,,*48
$GPRMC,011445.00,A,3354.9991671,S,15059.6063016,E,0.042,128.5,220519,0.0,E,A*2D
$GPVTG,128.524,T,128.524,M,0.042,N,0.077,K,A*25
$GPGGA,011446.00,3354.9992,S,15059.6063,E,1,20,0.6,11.77,M,22.60,M,,*44
$GPRMC,011446.00,A,3354.9991654,S,15059.6062976,E,0.075,326.2,220519,0.0,E,A*28
$GPVTG,326.216,T,326.216,M,0.075,N,0.139,K,A*2A
$GPGGA,011447.00,3354.9992,S,15059.6063,E,1,20,0.6,11.79,M,22.60,M,,*4B
$GPRMC,011447.00,A,3354.9991608,S,15059.6062974,E,0.075,318.4,220519,0.0,E,A*29
$GPVTG,318.358,T,318.358,M,0.075,N,0.139,K,A*2A
$GPGGA,011448.00,3354.9994,S,15059.6061,E,1,20,0.6,10.99,M,22.60,M,,*4F
$GPRMC,011448.00,A,3354.9993897,S,15059.6061239,E,0.030,324.5,220519,0.0,E,A*22
$GPVTG,324.501,T,324.501,M,0.030,N,0.055,K,A*20
$GPGGA,011449.00,3354.9994,S,15059.6061,E,1,20,0.6,11.00,M,22.60,M,,*4F
$GPRMC,011449.00,A,3354.9993901,S,15059.6061241,E,0.035,284.8,220519,0.0,E,A*21
$GPVTG,284.798,T,284.798,M,0.035,N,0.064,K,A*27
$GPGGA,011450.00,3354.9994,S,15059.6061,E,1,20,0.6,11.05,M,22.60,M,,*42
$GPRMC,011450.00,A,3354.9993865,S,15059.6061146,E,0.055,229.4,220519,0.0,E,A*23
$GPVTG,229.399,T,229.399,M,0.055,N,0.101,K,A*23
$GPGGA,011451.00,3354.9994,S,15059.6061,E,1,20,0.6,11.07,M,22.60,M,,*41
$GPRMC,011451.00,A,3354.9993866,S,15059.6061152,E,0.024,68.7,220519,0.0,E,A*16
$GPVTG,68.656,T,68.656,M,0.024,N,0.045,K,A*24
$GPGGA,011452.00,3354.9994,S,15059.6061,E,1,20,0.6,11.12,M,22.60,M,,*46
$GPRMC,011452.00,A,3354.9993917,S,15059.6061171,E,0.061,92.4,220519,0.0,E,A*14
$GPVTG,92.360,T,92.360,M,0.061,N,0.113,K,A*27
$GPGGA,011453.00,3354.9994,S,15059.6061,E,1,20,0.6,11.18,M,22.60,M,,*4D
$GPRMC,011453.00,A,3354.9993866,S,15059.6061100,E,0.006,291.8,220519,0.0,E,A*28
$GPVTG,291.821,T,291.821,M,0.006,N,0.010,K,A*24
$GPGGA,011454.00,3354.9994,S,15059.6061,E,1,20,0.6,11.24,M,22.60,M,,*45
$GPRMC,011454.00,A,3354.9993876,S,15059.6061027,E,0.057,214.5,220519,0.0,E,A*2E
$GPVTG,214.519,T,214.519,M,0.057,N,0.106,K,A*26
$GPGGA,011455.00,3354.9994,S,15059.6061,E,1,20,0.6,11.28,M,22.60,M,,*48
$GPRMC,011455.00,A,3354.9993856,S,15059.6061076,E,0.014,61.0,220519,0.0,E,A*1B
$GPVTG,61.032,T,61.032,M,0.014,N,0.026,K,A*22
$GPGGA,011456.00,3354.9994,S,15059.6061,E,1,20,0.6,11.34,M,22.60,M,,*46
$GPRMC,011456.00,A,3354.9993808,S,15059.6061124,E,0.050,191.2,220519,0.0,E,A*29
$GPVTG,191.171,T,191.171,M,0.050,N,0.092,K,A*2D
$GPGGA,011457.00,3354.9994,S,15059.6061,E,1,20,0.6,11.39,M,22.60,M,,*4A
$GPRMC,011457.00,A,3354.9993765,S,15059.6061135,E,0.028,299.6,220519,0.0,E,A*2C
$GPVTG,299.557,T,299.557,M,0.028,N,0.051,K,A*2D
$GPGGA,011458.00,3354.9994,S,15059.6061,E,1,20,0.6,11.45,M,22.60,M,,*4E
$GPRMC,011458.00,A,3354.9993745,S,15059.6061113,E,0.026,187.5,220519,0.0,E,A*24
$GPVTG,187.532,T,187.532,M,0.026,N,0.048,K,A*2B
$GPGGA,011459.00,3354.9994,S,15059.6061,E,1,20,0.6,11.51,M,22.60,M,,*4A
$GPRMC,011459.00,A,3354.9993775,S,15059.6061055,E,0.036,298.7,220519,0.0,E,A*2B
$GPVTG,298.657,T,298.657,M,0.036,N,0.066,K,A*26
$GPGGA,011500.00,3354.9994,S,15059.6061,E,1,20,0.6,11.58,M,22.60,M,,*4E
$GPRMC,011500.00,A,3354.9993724,S,15059.6061052,E,0.044,338.2,220519,0.0,E,A*2E
$GPVTG,338.158,T,338.158,M,0.044,N,0.081,K,A*2A
$GPGGA,011501.00,3354.9994,S,15059.6061,E,1,20,0.6,11.61,M,22.60,M,,*45
$GPRMC,011501.00,A,3354.9993708,S,15059.6061192,E,0.023,203.8,220519,0.0,E,A*2E
$GPVTG,203.757,T,203.757,M,0.023,N,0.043,K,A*25
$GPGGA,011502.00,3354.9994,S,15059.6061,E,1,20,0.6,11.69,M,22.60,M,,*4E
$GPRMC,011502.00,A,3354.9993713,S,15059.6061186,E,0.050,205.0,220519,0.0,E,A*28
$GPVTG,204.952,T,204.952,M,0.050,N,0.092,K,A*2D
$GPGGA,011503.00,3354.9994,S,15059.6061,E,1,20,0.6,11.75,M,22.60,M,,*42
$GPRMC,011503.00,A,3354.9993697,S,15059.6061197,E,0.011,173.1,220519,0.0,E,A*22
$GPVTG,173.112,T,173.112,M,0.011,N,0.020,K,A*21
$GPGGA,011504.00,3354.9994,S,15059.6061,E,1,20,0.6,11.78,M,22.60,M,,*48
$GPRMC,011504.00,A,3354.9993722,S,15059.6061177,E,0.003,188.6,220519,0.0,E,A*24
$GPVTG,188.566,T,188.566,M,0.003,N,0.005,K,A*25
$GPGGA,011505.00,3354.9994,S,15059.6061,E,1,20,0.6,11.83,M,22.60,M,,*4D
$GPRMC,011505.00,A,3354.9993704,S,15059.6061216,E,0.009,90.6,220519,0.0,E,A*17
$GPVTG,90.621,T,90.621,M,0.009,N,0.016,K,A*2D
$GPGGA,011506.00,3354.9994,S,15059.6061,E,1,20,0.6,11.89,M,22.60,M,,*44
$GPRMC,011506.00,A,3354.9993707,S,15059.6061255,E,0.026,17.3,220519,0.0,E,A*17
$GPVTG,17.336,T,17.336,M,0.026,N,0.049,K,A*2A
$GPGGA,011507.00,3354.9990,S,15059.6055,E,1,20,0.6,13.73,M,22.60,M,,*41
$GPRMC,011507.00,A,3354.9990150,S,15059.6055083,E,0.012,354.0,220519,0.0,E,A*2F
$GPVTG,353.983,T,353.983,M,0.012,N,0.022,K,A*20
$GPGGA,011508.00,3354.9990,S,15059.6055,E,1,20,0.6,13.79,M,22.60,M,,*44
$GPRMC,011508.00,A,3354.9990124,S,15059.6055012,E,0.006,336.7,220519,0.0,E,A*2D
$GPVTG,336.723,T,336.723,M,0.006,N,0.011,K,A*25
$GPGGA,011509.00,3354.9990,S,15059.6055,E,1,20,0.6,13.83,M,22.60,M,,*40
$GPRMC,011509.00,A,3354.9990085,S,15059.6055046,E,0.033,239.7,220519,0.0,E,A*2F
$GPVTG,239.715,T,239.715,M,0.033,N,0.061,K,A*24
$GPGGA,011510.00,3354.9990,S,15059.6055,E,1,20,0.6,13.87,M,22.60,M,,*4C
$GPRMC,011510.00,A,3354.9990067,S,15059.6054984,E,0.044,272.7,220519,0.0,E,A*22
$GPVTG,272.680,T,272.680,M,0.044,N,0.082,K,A*29
$GPGGA,011511.00,3354.9990,S,15059.6055,E,1,20,0.6,13.91,M,22.60,M,,*4A
$GPRMC,011511.00,A,3354.9990046,S,15059.6054968,E,0.062,330.0,220519,0.0,E,A*26
$GPVTG,330.015,T,330.015,M,0.062,N,0.115,K,A*22
$GPGGA,011512.00,3354.9990,S,15059.6055,E,1,20,0.6,13.94,M,22.60,M,,*4C
$GPRMC,011512.00,A,3354.9990082,S,15059.6054904,E,0.034,246.5,220519,0.0,E,A*21
$GPVTG,246.515,T,246.515,M,0.034,N,0.064,K,A*26
$GPGGA,011513.00,3354.9990,S,15059.6055,E,1,20,0.6,13.96,M,22.60,M,,*4F
$GPRMC,011513.00,A,3354.9990073,S,15059.6054869,E,0.036,56.0,220519,0.0,E,A*10
$GPVTG,55.979,T,55.979,M,0.036,N,0.066,K,A*26
$GPGGA,011514.00,3354.9990,S,15059.6055,E,1,20,0.6,13.99,M,22.60,M,,*47
$GPRMC,011514.00,A,3354.9990095,S,15059.6054791,E,0.015,213.4,220519,0.0,E,A*21
$GPVTG,213.368,T,213.368,M,0.015,N,0.027,K,A*22
$GPGGA,011515.00,3354.9990,S,15059.6055,E,1,20,0.6,14.04,M,22.60,M,,*45
$GPRMC,011515.00,A,3354.9990115,S,15059.6054698,E,0.016,208.7,220519,0.0,E,A*2B
$GPVTG,208.667,T,208.667,M,0.016,N,0.030,K,A*27
$GPGGA,011516.00,3354.9990,S,15059.6055,E,1,20,0.6,14.07,M,22.60,M,,*45
$GPRMC,011516.00,A,3354.9990095,S,15059.6054657,E,0.029,295.2,220519,0.0,E,A*2F
$GPVTG,295.228,T,295.228,M,0.029,N,0.053,K,A*2E
$GPGGA,011517.00,3354.9990,S,15059.6055,E,1,21,0.6,14.18,M,22.60,M,,*4B
$GPRMC,011517.00,A,3354.9989924,S,15059.6054627,E,0.040,189.3,220519,0.0,E,A*22
$GPVTG,189.328,T,189.328,M,0.040,N,0.074,K,A*24
$GPGGA,011518.00,3354.9989,S,15059.6058,E,1,21,0.6,15.26,M,22.60,M,,*4D
$GPRMC,011518.00,A,3354.9989326,S,15059.6057967,E,0.015,38.8,220519,0.0,E,A*1D
$GPVTG,38.764,T,38.764,M,0.015,N,0.027,K,A*22
$GPGGA,011519.00,3354.9989,S,15059.6058,E,1,21,0.6,15.30,M,22.60,M,,*4B
$GPRMC,011519.00,A,3354.9989329,S,15059.6057879,E,0.013,195.7,220519,0.0,E,A*22
$GPVTG,195.727,T,195.727,M,0.013,N,0.023,K,A*20
$GPGGA,011520.00,3354.9989,S,15059.6058,E,1,21,0.6,15.34,M,22.60,M,,*45
$GPRMC,011520.00,A,3354.9989328,S,15059.6057804,E,0.032,305.3,220519,0.0,E,A*2F
$GPVTG,305.263,T,305.263,M,0.032,N,0.059,K,A*2E
$GPGGA,011521.00,3354.9989,S,15059.6058,E,1,21,0.6,15.37,M,22.60,M,,*47
$GPRMC,011521.00,A,3354.9989325,S,15059.6057746,E,0.020,190.0,220519,0.0,E,A*24
$GPVTG,190.026,T,190.026,M,0.020,N,0.037,K,A*25
$GPGGA,011522.00,3354.9989,S,15059.6058,E,1,21,0.6,15.44,M,22.60,M,,*40
$GPRMC,011522.00,A,3354.9989352,S,15059.6057654,E,0.015,153.7,220519,0.0,E,A*2B
$GPVTG,153.710,T,153.710,M,0.015,N,0.028,K,A*2D
$GPGGA,011523.00,3354.9989,S,15059.6058,E,1,21,0.6,15.49,M,22.60,M,,*4C
$GPRMC,011523.00,A,3354.9989332,S,15059.6057597,E,0.021,188.2,220519,0.0,E,A*24
$GPVTG,188.174,T,188.174,M,0.021,N,0.039,K,A*2A
$GPGGA,011524.00,3354.9989,S,15059.6058,E,1,21,0.6,15.54,M,22.60,M,,*47
$GPRMC,011524.00,A,3354.9989323,S,15059.6057570,E,0.029,263.6,220519,0.0,E,A*20
$GPVTG,263.620,T,263.620,M,0.029,N,0.054,K,A*29
$GPGGA,011525.00,3354.9989,S,15059.6058,E,1,21,0.6,15.59,M,22.60,M,,*4B
$GPRMC,011525.00,A,3354.9989314,S,15059.6057600,E,0.020,336.5,220519,0.0,E,A*2A
$GPVTG,336.495,T,336.495,M,0.020,N,0.037,K,A*25
$GPGGA,011526.00,3354.9989,S,15059.6058,E,1,21,0.6,15.66,M,22.60,M,,*44
$GPRMC,011526.00,A,3354.9989334,S,15059.6057588,E,0.040,31.0,220519,0.0,E,A*1F
$GPVTG,31.030,T,31.030,M,0.040,N,0.075,K,A*25
$GPGGA,011527.00,3354.9989,S,15059.6058,E,1,21,0.6,15.70,M,22.60,M,,*42
$GPRMC,011527.00,A,3354.9989314,S,15059.6057624,E,0.031,24.3,220519,0.0,E,A*18
$GPVTG,24.344,T,24.344,M,0.031,N,0.057,K,A*23
$GPGGA,011528.00,3354.9989,S,15059.6058,E,1,21,0.6,15.75,M,22.60,M,,*48
$GPRMC,011528.00,A,3354.9989281,S,15059.6057636,E,0.028,28.6,220519,0.0,E,A*18
$GPVTG,28.648,T,28.648,M,0.028,N,0.051,K,A*2D
$GPGGA,011529.00,3354.9989,S,15059.6058,E,1,21,0.6,15.81,M,22.60,M,,*42
$GPRMC,011529.00,A,3354.9989241,S,15059.6057631,E,0.025,356.8,220519,0.0,E,A*2B
$GPVTG,356.759,T,356.759,M,0.025,N,0.047,K,A*27
$GPGGA,011530.00,3354.9989,S,15059.6058,E,1,21,0.6,15.88,M,22.60,M,,*43
$GPRMC,011530.00,A,3354.9989247,S,15059.6057639,E,0.025,351.9,220519,0.0,E,A*2B
$GPVTG,351.866,T,351.866,M,0.025,N,0.047,K,A*27
$GPGGA,011531.00,3354.9989,S,15059.6058,E,1,21,0.6,15.93,M,22.60,M,,*48
$GPRMC,011531.00,A,3354.9989206,S,15059.6057688,E,0.014,79.5,220519,0.0,E,A*12
$GPVTG,79.452,T,79.452,M,0.014,N,0.026,K,A*22
$GPGGA,011532.00,3354.9989,S,15059.6058,E,1,21,0.6,15.98,M,22.60,M,,*40
$GPRMC,011532.00,A,3354.9989193,S,15059.6057721,E,0.048,211.5,220519,0.0,E,A*29
$GPVTG,211.461,T,211.461,M,0.048,N,0.089,K,A*2E
$GPGGA,011533.00,3354.9989,S,15059.6058,E,1,21,0.6,16.03,M,22.60,M,,*40
$GPRMC,011533.00,A,3354.9989126,S,15059.6057718,E,0.021,247.4,220519,0.0,E,A*21
$GPVTG,247.436,T,247.436,M,0.021,N,0.039,K,A*2A
$GPGGA,011534.00,3354.9989,S,15059.6058,E,1,21,0.6,16.09,M,22.60,M,,*4D
$GPRMC,011534.00,A,3354.9989109,S,15059.6057773,E,0.003,139.0,220519,0.0,E,A*28
$GPVTG,139.005,T,139.005,M,0.003,N,0.005,K,A*25
$GPGGA,011535.00,3354.9989,S,15059.6058,E,1,21,0.6,16.13,M,22.60,M,,*47
$GPRMC,011535.00,A,3354.9989076,S,15059.6057857,E,0.005,234.3,220519,0.0,E,A*22
$GPVTG,234.346,T,234.346,M,0.005,N,0.010,K,A*27
$GPGGA,011536.00,3354.9989,S,15059.6058,E,1,21,0.6,16.19,M,22.60,M,,*4E
$GPRMC,011536.00,A,3354.9989045,S,15059.6057928,E,0.025,223.5,220519,0.0,E,A*2A
$GPVTG,223.497,T,223.497,M,0.025,N,0.046,K,A*26
$GPGGA,011537.00,3354.9989,S,15059.6058,E,1,21,0.6,16.23,M,22.60,M,,*46
$GPRMC,011537.00,A,3354.9989013,S,15059.6057938,E,0.036,199.9,220519,0.0,E,A*25
$GPVTG,199.878,T,199.878,M,0.036,N,0.067,K,A*27
$GPGGA,011538.00,3354.9989,S,15059.6058,E,1,21,0.6,16.28,M,22.60,M,,*42
$GPRMC,011538.00,A,3354.9988993,S,15059.6057983,E,0.027,133.1,220519,0.0,E,A*22
$GPVTG,133.115,T,133.115,M,0.027,N,0.049,K,A*2B
$GPGGA,011539.00,3354.9989,S,15059.6058,E,1,21,0.6,16.34,M,22.60,M,,*4E
$GPRMC,011539.00,A,3354.9989001,S,15059.6057995,E,0.016,201.8,220519,0.0,E,A*2E
$GPVTG,201.845,T,201.845,M,0.016,N,0.029,K,A*2F
$GPGGA,011540.00,3354.9989,S,15059.6058,E,1,21,0.6,16.33,M,22.60,M,,*47
$GPRMC,011540.00,A,3354.9988768,S,15059.6058115,E,0.011,11.4,220519,0.0,E,A*1E
$GPVTG,11.431,T,11.431,M,0.011,N,0.020,K,A*21
$GPGGA,011541.00,3354.9989,S,15059.6058,E,1,21,0.6,16.42,M,22.60,M,,*40
$GPRMC,011541.00,A,3354.9988811,S,15059.6058207,E,0.021,290.0,220519,0.0,E,A*22
$GPVTG,290.029,T,290.029,M,0.021,N,0.039,K,A*2A
$GPGGA,011542.00,3354.9989,S,15059.6058,E,1,21,0.6,16.46,M,22.60,M,,*47
$GPRMC,011542.00,A,3354.9988753,S,15059.6058266,E,0.011,264.9,220519,0.0,E,A*2E
$GPVTG,264.930,T,264.930,M,0.011,N,0.020,K,A*21
$GPGGA,011543.00,3354.9989,S,15059.6058,E,1,21,0.6,16.49,M,22.60,M,,*49
$GPRMC,011543.00,A,3354.9988740,S,15059.6058285,E,0.020,187.4,220519,0.0,E,A*21
$GPVTG,187.448,T,187.448,M,0.020,N,0.037,K,A*25
$GPGGA,011544.00,3354.9989,S,15059.6058,E,1,21,0.6,16.52,M,22.60,M,,*44
$GPRMC,011544.00,A,3354.9988732,S,15059.6058257,E,0.019,214.1,220519,0.0,E,A*2A
$GPVTG,214.089,T,214.089,M,0.019,N,0.035,K,A*2D
$GPGGA,011545.00,3354.9988,S,15059.6059,E,1,21,0.6,16.54,M,22.60,M,,*43
$GPRMC,011545.00,A,3354.9987641,S,15059.6059320,E,0.009,295.7,220519,0.0,E,A*2F
$GPVTG,295.664,T,295.664,M,0.009,N,0.016,K,A*2D
$GPGGA,011546.00,3354.9988,S,15059.6059,E,1,21,0.6,16.58,M,22.60,M,,*4C
$GPRMC,011546.00,A,3354.9987604,S,15059.6059319,E,0.029,36.7,220519,0.0,E,A*1E
$GPVTG,36.689,T,36.689,M,0.029,N,0.054,K,A*29
$GPGGA,011547.00,3354.9988,S,15059.6059,E,1,21,0.6,16.62,M,22.60,M,,*44
$GPRMC,011547.00,A,3354.9987578,S,15059.6059339,E,0.010,355.7,220519,0.0,E,A*29
$GPVTG,355.696,T,355.696,M,0.010,N,0.019,K,A*2A
$GPGGA,011548.00,3354.9988,S,15059.6059,E,1,21,0.6,16.64,M,22.60,M,,*4D
$GPRMC,011548.00,A,3354.9987541,S,15059.6059358,E,0.031,347.2,220519,0.0,E,A*2E
$GPVTG,347.233,T,347.233,M,0.031,N,0.057,K,A*23
$GPGGA,011549.00,3354.9989,S,15059.6058,E,1,21,0.6,16.22,M,22.60,M,,*4E
$GPRMC,011549.00,A,3354.9988934,S,15059.6058066,E,0.030,296.8,220519,0.0,E,A*27
$GPVTG,296.798,T,296.798,M,0.030,N,0.055,K,A*20
$GPGGA,011550.00,3354.9989,S,15059.6058,E,1,21,0.6,16.25,M,22.60,M,,*41
$GPRMC,011550.00,A,3354.9988900,S,15059.6058071,E,0.055,229.9,220519,0.0,E,A*28
$GPVTG,229.897,T,229.897,M,0.055,N,0.101,K,A*23
$GPGGA,011551.00,3354.9989,S,15059.6058,E,1,21,0.6,16.29,M,22.60,M,,*4C
$GPRMC,011551.00,A,3354.9988876,S,15059.6058080,E,0.007,250.4,220519,0.0,E,A*23
$GPVTG,250.358,T,250.358,M,0.007,N,0.014,K,A*21
$GPGGA,011552.00,3354.9989,S,15059.6058,E,1,21,0.6,16.31,M,22.60,M,,*46
$GPRMC,011552.00,A,3354.9988839,S,15059.6058102,E,0.027,285.0,220519,0.0,E,A*2E
$GPVTG,284.983,T,284.983,M,0.027,N,0.050,K,A*23
$GPGGA,011553.00,3354.9989,S,15059.6058,E,1,21,0.6,16.33,M,22.60,M,,*45
$GPRMC,011553.00,A,3354.9988796,S,15059.6058132,E,0.020,197.5,220519,0.0,E,A*24
$GPVTG,197.486,T,197.486,M,0.020,N,0.038,K,A*2A
$GPGGA,011554.00,3354.9989,S,15059.6058,E,1,21,0.6,16.37,M,22.60,M,,*46
$GPRMC,011554.00,A,3354.9988736,S,15059.6058151,E,0.025,202.4,220519,0.0,E,A*27
$GPVTG,202.379,T,202.379,M,0.025,N,0.046,K,A*26
$GPGGA,011555.00,3354.9989,S,15059.6058,E,1,21,0.6,16.40,M,22.60,M,,*47
$GPRMC,011555.00,A,3354.9988685,S,15059.6058185,E,0.020,29.8,220519,0.0,E,A*14
$GPVTG,29.765,T,29.765,M,0.020,N,0.037,K,A*25
$GPGGA,011556.00,3354.9989,S,15059.6058,E,1,21,0.6,16.44,M,22.60,M,,*40
$GPRMC,011556.00,A,3354.9988646,S,15059.6058184,E,0.026,315.4,220519,0.0,E,A*2F
$GPVTG,315.442,T,315.442,M,0.026,N,0.047,K,A*24
$GPGGA,011557.00,3354.9989,S,15059.6058,E,1,21,0.6,16.46,M,22.60,M,,*43
$GPRMC,011557.00,A,3354.9988611,S,15059.6058232,E,0.023,346.7,220519,0.0,E,A*22
$GPVTG,346.675,T,346.675,M,0.023,N,0.042,K,A*24
$GPGGA,011558.00,3354.9988,S,15059.6058,E,1,21,0.6,16.61,M,22.60,M,,*48
$GPRMC,011558.00,A,3354.9988252,S,15059.6058235,E,0.011,223.9,220519,0.0,E,A*24
$GPVTG,223.891,T,223.891,M,0.011,N,0.020,K,A*21
$GPGGA,011559.00,3354.9988,S,15059.6058,E,1,21,0.6,16.64,M,22.60,M,,*4C
$GPRMC,011559.00,A,3354.9988240,S,15059.6058289,E,0.043,13.7,220519,0.0,E,A*19
$GPVTG,13.702,T,13.702,M,0.043,N,0.081,K,A*2D
$GPGGA,011600.00,3354.9989,S,15059.6058,E,1,21,0.6,16.71,M,22.60,M,,*46
$GPRMC,011600.00,A,3354.9988630,S,15059.6058152,E,0.025,10.0,220519,0.0,E,A*14
$GPVTG,9.966,T,9.966,M,0.025,N,0.046,K,A*26
$GPGGA,011601.00,3354.9989,S,15059.6058,E,1,21,0.6,16.74,M,22.60,M,,*42
$GPRMC,011601.00,A,3354.9988575,S,15059.6058173,E,0.026,327.4,220519,0.0,E,A*24
$GPVTG,327.367,T,327.367,M,0.026,N,0.049,K,A*2A
$GPGGA,011602.00,3354.9989,S,15059.6058,E,1,21,0.6,16.76,M,22.60,M,,*43
$GPRMC,011602.00,A,3354.9988552,S,15059.6058200,E,0.024,336.7,220519,0.0,E,A*24
$GPVTG,336.738,T,336.738,M,0.024,N,0.045,K,A*24
$GPGGA,011603.00,3354.9989,S,15059.6058,E,1,21,0.6,16.78,M,22.60,M,,*4C
$GPRMC,011603.00,A,3354.9988545,S,15059.6058188,E,0.011,74.2,220519,0.0,E,A*16
$GPVTG,74.168,T,74.168,M,0.011,N,0.021,K,A*20
$GPGGA,011604.00,3354.9989,S,15059.6058,E,1,21,0.6,16.82,M,22.60,M,,*4E
$GPRMC,011604.00,A,3354.9988527,S,15059.6058176,E,0.029,354.8,220519,0.0,E,A*24
$GPVTG,354.842,T,354.842,M,0.029,N,0.054,K,A*29
$GPGGA,011605.00,3354.9989,S,15059.6058,E,1,21,0.6,16.85,M,22.60,M,,*48
$GPRMC,011605.00,A,3354.9988514,S,15059.6058187,E,0.026,84.6,220519,0.0,E,A*14
$GPVTG,84.578,T,84.578,M,0.026,N,0.049,K,A*2A
$GPGGA,011606.00,3354.9988,S,15059.6058,E,1,21,0.6,16.86,M,22.60,M,,*49
$GPRMC,011606.00,A,3354.9988456,S,15059.6058230,E,0.018,113.3,220519,0.0,E,A*28
$GPVTG,113.343,T,113.343,M,0.018,N,0.033,K,A*2A
$GPGGA,011607.00,3354.9988,S,15059.6058,E,1,21,0.6,16.89,M,22.60,M,,*47
$GPRMC,011607.00,A,3354.9988369,S,15059.6058225,E,0.021,1.3,220519,0.0,E,A*2E
$GPVTG,1.298,T,1.298,M,0.021,N,0.039,K,A*2A
$GPGGA,011608.00,3354.9987,S,15059.6056,E,1,21,0.6,17.67,M,22.60,M,,*48
$GPRMC,011608.00,A,3354.9986763,S,15059.6055593,E,0.021,259.5,220519,0.0,E,A*2F
$GPVTG,259.459,T,259.459,M,0.021,N,0.038,K,A*2B
$GPGGA,011609.00,3354.9987,S,15059.6056,E,1,21,0.6,17.70,M,22.60,M,,*4F
$GPRMC,011609.00,A,3354.9986722,S,15059.6055583,E,0.031,223.1,220519,0.0,E,A*22
$GPVTG,223.063,T,223.063,M,0.031,N,0.057,K,A*23
$GPGGA,011610.00,3354.9987,S,15059.6056,E,1,21,0.6,17.71,M,22.60,M,,*46
$GPRMC,011610.00,A,3354.9986682,S,15059.6055613,E,0.030,266.3,220519,0.0,E,A*29
$GPVTG,266.309,T,266.309,M,0.030,N,0.056,K,A*23
$GPGGA,011611.00,3354.9987,S,15059.6056,E,1,21,0.6,17.73,M,22.60,M,,*45
$GPRMC,011611.00,A,3354.9986641,S,15059.6055632,E,0.021,104.1,220519,0.0,E,A*21
$GPVTG,104.097,T,104.097,M,0.021,N,0.040,K,A*24
$GPGGA,011612.00,3354.9987,S,15059.6056,E,1,21,0.6,17.75,M,22.60,M,,*40
$GPRMC,011612.00,A,3354.9986632,S,15059.6055679,E,0.021,43.1,220519,0.0,E,A*1B
$GPVTG,43.086,T,43.086,M,0.021,N,0.039,K,A*2A
$GPGGA,011613.00,3354.9987,S,15059.6056,E,1,21,0.6,17.76,M,22.60,M,,*42
$GPRMC,011613.00,A,3354.9986655,S,15059.6055729,E,0.045,32.2,220519,0.0,E,A*18
$GPVTG,32.245,T,32.245,M,0.045,N,0.084,K,A*2E
$GPGGA,011614.00,3354.9987,S,15059.6056,E,1,21,0.6,17.78,M,22.60,M,,*4B
$GPRMC,011614.00,A,3354.9986626,S,15059.6055741,E,0.027,258.1,220519,0.0,E,A*2C
$GPVTG,258.131,T,258.131,M,0.027,N,0.049,K,A*2B
$GPGGA,011615.00,3354.9987,S,15059.6056,E,1,21,0.6,17.81,M,22.60,M,,*4C
$GPRMC,011615.00,A,3354.9986579,S,15059.6055775,E,0.074,339.9,220519,0.0,E,A*2B
$GPVTG,339.872,T,339.872,M,0.074,N,0.137,K,A*25
$GPGGA,011616.00,3354.9987,S,15059.6056,E,1,21,0.6,17.85,M,22.60,M,,*4B
$GPRMC,011616.00,A,3354.9986604,S,15059.6055762,E,0.021,106.0,220519,0.0,E,A*20
$GPVTG,105.960,T,105.960,M,0.021,N,0.039,K,A*2A
$GPGGA,011617.00,3354.9987,S,15059.6056,E,1,21,0.6,17.86,M,22.60,M,,*49
$GPRMC,011617.00,A,3354.9986614,S,15059.6055800,E,0.053,212.3,220519,0.0,E,A*2B
$GPVTG,212.298,T,212.298,M,0.053,N,0.098,K,A*24
$GPGGA,011618.00,3354.9987,S,15059.6056,E,1,21,0.6,17.87,M,22.60,M,,*47
$GPRMC,011618.00,A,3354.9986529,S,15059.6055837,E,0.060,13.6,220519,0.0,E,A*1B
$GPVTG,13.625,T,13.625,M,0.060,N,0.112,K,A*27
$GPGGA,011619.00,3354.9986,S,15059.6061,E,1,21,0.6,19.24,M,22.60,M,,*44
$GPRMC,011619.00,A,3354.9985616,S,15059.6060534,E,0.033,253.5,220519,0.0,E,A*2D
$GPVTG,253.506,T,253.506,M,0.033,N,0.061,K,A*24
$GPGGA,011620.00,3354.9986,S,15059.6061,E,1,21,0.6,19.24,M,22.60,M,,*4E
$GPRMC,011620.00,A,3354.9985580,S,15059.6060580,E,0.023,353.3,220519,0.0,E,A*22
$GPVTG,353.343,T,353.343,M,0.023,N,0.043,K,A*25
$GPGGA,011621.00,3354.9986,S,15059.6061,E,1,21,0.6,19.26,M,22.60,M,,*4D
$GPRMC,011621.00,A,3354.9985565,S,15059.6060666,E,0.035,137.1,220519,0.0,E,A*26
$GPVTG,137.101,T,137.101,M,0.035,N,0.065,K,A*26
$GPGGA,011622.00,3354.9986,S,15059.6061,E,1,21,0.6,19.26,M,22.60,M,,*4E
$GPRMC,011622.00,A,3354.9985520,S,15059.6060746,E,0.019,10.7,220519,0.0,E,A*1B
$GPVTG,10.723,T,10.723,M,0.019,N,0.035,K,A*2D
$GPGGA,011623.00,3354.9985,S,15059.6061,E,1,21,0.6,19.28,M,22.60,M,,*42
$GPRMC,011623.00,A,3354.9985494,S,15059.6060833,E,0.019,278.5,220519,0.0,E,A*27
$GPVTG,278.526,T,278.526,M,0.019,N,0.036,K,A*2E
$GPGGA,011624.00,3354.9986,S,15059.6061,E,1,21,0.6,19.27,M,22.60,M,,*49
$GPRMC,011624.00,A,3354.9985533,S,15059.6060951,E,0.025,340.8,220519,0.0,E,A*21
$GPVTG,340.775,T,340.775,M,0.025,N,0.046,K,A*26
$GPGGA,011625.00,3354.9985,S,15059.6061,E,1,21,0.6,19.28,M,22.60,M,,*44
$GPRMC,011625.00,A,3354.9985476,S,15059.6061022,E,0.013,329.3,220519,0.0,E,A*2D
$GPVTG,329.346,T,329.346,M,0.013,N,0.024,K,A*27
$GPGGA,011626.00,3354.9985,S,15059.6061,E,1,21,0.6,19.27,M,22.60,M,,*48
$GPRMC,011626.00,A,3354.9985465,S,15059.6061133,E,0.023,273.8,220519,0.0,E,A*2B
$GPVTG,273.804,T,273.804,M,0.023,N,0.042,K,A*24
$GPGGA,011627.00,3354.9985,S,15059.6061,E,1,21,0.6,19.25,M,22.60,M,,*4B
$GPRMC,011627.00,A,3354.9985428,S,15059.6061264,E,0.036,13.0,220519,0.0,E,A*1A
$GPVTG,12.979,T,12.979,M,0.036,N,0.066,K,A*26
$GPGGA,011628.00,3354.9985,S,15059.6061,E,1,21,0.6,19.26,M,22.60,M,,*47
$GPRMC,011628.00,A,3354.9985427,S,15059.6061378,E,0.029,347.8,220519,0.0,E,A*22
$GPVTG,347.838,T,347.838,M,0.029,N,0.054,K,A*29
$GPGGA,011629.00,3354.9985,S,15059.6061,E,1,21,0.6,19.26,M,22.60,M,,*46
$GPRMC,011629.00,A,3354.9985445,S,15059.6061470,E,0.035,224.0,220519,0.0,E,A*29
$GPVTG,223.964,T,223.964,M,0.035,N,0.065,K,A*26
$GPGGA,011630.00,3354.9985,S,15059.6062,E,1,21,0.6,19.26,M,22.60,M,,*4D
$GPRMC,011630.00,A,3354.9985383,S,15059.6061573,E,0.018,353.8,220519,0.0,E,A*28
$GPVTG,353.813,T,353.813,M,0.018,N,0.033,K,A*2A
$GPGGA,011631.00,3354.9988,S,15059.6067,E,1,20,0.6,17.77,M,22.60,M,,*4F
$GPRMC,011631.00,A,3354.9988332,S,15059.6066764,E,0.024,53.3,220519,0.0,E,A*1A
$GPVTG,53.275,T,53.275,M,0.024,N,0.045,K,A*24
$GPGGA,011632.00,3354.9988,S,15059.6067,E,1,21,0.6,17.78,M,22.60,M,,*42
$GPRMC,011632.00,A,3354.9988282,S,15059.6066835,E,0.058,165.5,220519,0.0,E,A*21
$GPVTG,165.512,T,165.512,M,0.058,N,0.107,K,A*28
$GPGGA,011633.00,3354.9991,S,15059.6071,E,1,21,0.6,16.65,M,22.60,M,,*41
$GPRMC,011633.00,A,3354.9990582,S,15059.6070824,E,0.036,205.4,220519,0.0,E,A*25
$GPVTG,205.404,T,205.404,M,0.036,N,0.067,K,A*27
$GPGGA,011634.00,3354.9990,S,15059.6071,E,1,21,0.6,16.70,M,22.60,M,,*43
$GPRMC,011634.00,A,3354.9990472,S,15059.6070745,E,0.026,182.3,220519,0.0,E,A*2E
$GPVTG,182.300,T,182.300,M,0.026,N,0.049,K,A*2A
$GPGGA,011635.00,3354.9990,S,15059.6071,E,1,21,0.6,16.75,M,22.60,M,,*47
$GPRMC,011635.00,A,3354.9990337,S,15059.6070677,E,0.027,246.1,220519,0.0,E,A*21
$GPVTG,246.051,T,246.051,M,0.027,N,0.049,K,A*2B
$GPGGA,011636.00,3354.9991,S,15059.6071,E,1,21,0.6,16.65,M,22.60,M,,*44
$GPRMC,011636.00,A,3354.9990518,S,15059.6071088,E,0.044,187.2,220519,0.0,E,A*26
$GPVTG,187.237,T,187.237,M,0.044,N,0.082,K,A*29
$GPGGA,011637.00,3354.9991,S,15059.6072,E,1,21,0.6,16.44,M,22.60,M,,*45
$GPRMC,011637.00,A,3354.9990956,S,15059.6071851,E,0.009,153.5,220519,0.0,E,A*2A
$GPVTG,153.465,T,153.465,M,0.009,N,0.016,K,A*2D
$GPGGA,011638.00,3354.9991,S,15059.6073,E,1,21,0.6,16.26,M,22.60,M,,*4F
$GPRMC,011638.00,A,3354.9991353,S,15059.6072580,E,0.031,209.0,220519,0.0,E,A*2B
$GPVTG,208.975,T,208.975,M,0.031,N,0.057,K,A*23
$GPGGA,011639.00,3354.9992,S,15059.6073,E,1,21,0.6,16.11,M,22.60,M,,*49
$GPRMC,011639.00,A,3354.9991660,S,15059.6073155,E,0.035,115.9,220519,0.0,E,A*21
$GPVTG,115.869,T,115.869,M,0.035,N,0.066,K,A*25
$GPGGA,011640.00,3354.9988,S,15059.6067,E,1,20,0.6,17.92,M,22.60,M,,*42
$GPRMC,011640.00,A,3354.9988033,S,15059.6066974,E,0.033,311.5,220519,0.0,E,A*24
$GPVTG,311.466,T,311.466,M,0.033,N,0.062,K,A*27
$GPGGA,011641.00,3354.9987,S,15059.6066,E,1,21,0.6,18.17,M,22.60,M,,*4E
$GPRMC,011641.00,A,3354.9987437,S,15059.6066244,E,0.044,216.6,220519,0.0,E,A*27
$GPVTG,216.557,T,216.557,M,0.044,N,0.082,K,A*29
$GPGGA,011642.00,3354.9988,S,15059.6067,E,1,20,0.6,17.91,M,22.60,M,,*43
$GPRMC,011642.00,A,3354.9987861,S,15059.6067161,E,0.025,258.0,220519,0.0,E,A*25
$GPVTG,258.026,T,258.026,M,0.025,N,0.046,K,A*26
$GPGGA,011643.00,3354.9988,S,15059.6067,E,1,20,0.6,17.91,M,22.60,M,,*42
$GPRMC,011643.00,A,3354.9987823,S,15059.6067213,E,0.030,346.8,220519,0.0,E,A*26
$GPVTG,346.767,T,346.767,M,0.030,N,0.055,K,A*20
$GPGGA,011644.00,3354.9988,S,15059.6067,E,1,20,0.6,17.91,M,22.60,M,,*45
$GPRMC,011644.00,A,3354.9987855,S,15059.6067207,E,0.040,143.3,220519,0.0,E,A*2E
$GPVTG,143.278,T,143.278,M,0.040,N,0.074,K,A*24
$GPGGA,011645.00,3354.9987,S,15059.6066,E,1,21,0.6,18.27,M,22.60,M,,*49
$GPRMC,011645.00,A,3354.9987327,S,15059.6066004,E,0.065,315.9,220519,0.0,E,A*2D
$GPVTG,315.944,T,315.944,M,0.065,N,0.120,K,A*23
$GPGGA,011646.00,3354.9988,S,15059.6067,E,1,20,0.6,17.91,M,22.60,M,,*47
$GPRMC,011646.00,A,3354.9987656,S,15059.6067287,E,0.076,15.2,220519,0.0,E,A*1F
$GPVTG,15.222,T,15.222,M,0.076,N,0.141,K,A*26
$GPGGA,011647.00,3354.9988,S,15059.6067,E,1,20,0.6,17.97,M,22.60,M,,*40
$GPRMC,011647.00,A,3354.9987766,S,15059.6067419,E,0.029,154.7,220519,0.0,E,A*26
$GPVTG,154.689,T,154.689,M,0.029,N,0.053,K,A*2E
$GPGGA,011648.00,3354.9988,S,15059.6067,E,1,20,0.6,17.97,M,22.60,M,,*4F
$GPRMC,011648.00,A,3354.9987737,S,15059.6067463,E,0.031,155.6,220519,0.0,E,A*29
$GPVTG,155.638,T,155.638,M,0.031,N,0.058,K,A*2C
$GPGGA,011649.00,3354.9988,S,15059.6068,E,1,20,0.6,17.97,M,22.60,M,,*41
$GPRMC,011649.00,A,3354.9987643,S,15059.6067501,E,0.041,239.2,220519,0.0,E,A*25
$GPVTG,239.204,T,239.204,M,0.041,N,0.077,K,A*26
$GPGGA,011650.00,3354.9988,S,15059.6066,E,1,21,0.6,17.91,M,22.60,M,,*40
$GPRMC,011650.00,A,3354.9987885,S,15059.6065981,E,0.024,219.5,220519,0.0,E,A*29
$GPVTG,219.525,T,219.525,M,0.024,N,0.045,K,A*24
$GPGGA,011651.00,3354.9988,S,15059.6067,E,1,20,0.6,17.60,M,22.60,M,,*4F
$GPRMC,011651.00,A,3354.9988432,S,15059.6067006,E,0.018,28.8,220519,0.0,E,A*11
$GPVTG,28.768,T,28.768,M,0.018,N,0.034,K,A*2D
$GPGGA,011652.00,3354.9988,S,15059.6067,E,1,20,0.6,17.58,M,22.60,M,,*47
$GPRMC,011652.00,A,3354.9988381,S,15059.6067078,E,0.006,60.9,220519,0.0,E,A*16
$GPVTG,60.920,T,60.920,M,0.006,N,0.011,K,A*25
$GPGGA,011653.00,3354.9988,S,15059.6067,E,1,20,0.6,17.57,M,22.60,M,,*49
$GPRMC,011653.00,A,3354.9988312,S,15059.6067081,E,0.024,54.6,220519,0.0,E,A*13
$GPVTG,54.602,T,54.602,M,0.024,N,0.045,K,A*24
$GPGGA,011654.00,3354.9988,S,15059.6067,E,1,20,0.6,17.57,M,22.60,M,,*4E
$GPRMC,011654.00,A,3354.9988250,S,15059.6067078,E,0.022,151.3,220519,0.0,E,A*22
$GPVTG,151.332,T,151.332,M,0.022,N,0.040,K,A*27
$GPGGA,011655.00,3354.9988,S,15059.6066,E,1,21,0.6,17.88,M,22.60,M,,*4D
$GPRMC,011655.00,A,3354.9987624,S,15059.6066036,E,0.062,187.2,220519,0.0,E,A*2E
$GPVTG,187.193,T,187.193,M,0.062,N,0.116,K,A*21
$GPGGA,011656.00,3354.9988,S,15059.6067,E,1,20,0.6,17.56,M,22.60,M,,*4D
$GPRMC,011656.00,A,3354.9988193,S,15059.6067101,E,0.024,253.6,220519,0.0,E,A*21
$GPVTG,253.627,T,253.627,M,0.024,N,0.044,K,A*25
$GPGGA,011657.00,3354.9988,S,15059.6067,E,1,20,0.6,17.56,M,22.60,M,,*4C
$GPRMC,011657.00,A,3354.9988145,S,15059.6067089,E,0.018,355.2,220519,0.0,E,A*26
$GPVTG,355.204,T,355.204,M,0.018,N,0.033,K,A*2A
$GPGGA,011658.00,3354.9988,S,15059.6067,E,1,20,0.6,17.56,M,22.60,M,,*43
$GPRMC,011658.00,A,3354.9988058,S,15059.6067057,E,0.043,211.7,220519,0.0,E,A*2D
$GPVTG,211.750,T,211.750,M,0.043,N,0.079,K,A*2A
$GPGGA,011659.00,3354.9987,S,15059.6066,E,1,21,0.6,17.87,M,22.60,M,,*41
$GPRMC,011659.00,A,3354.9987383,S,15059.6066038,E,0.013,235.0,220519,0.0,E,A*2A
$GPVTG,235.027,T,235.027,M,0.013,N,0.024,K,A*27
$GPGGA,011700.00,3354.9988,S,15059.6067,E,1,20,0.6,17.60,M,22.60,M,,*4A
$GPRMC,011700.00,A,3354.9987844,S,15059.6066897,E,0.029,177.2,220519,0.0,E,A*24
$GPVTG,177.246,T,177.246,M,0.029,N,0.054,K,A*29
$GPGGA,011701.00,3354.9988,S,15059.6067,E,1,20,0.6,17.61,M,22.60,M,,*4A
$GPRMC,011701.00,A,3354.9987872,S,15059.6066828,E,0.018,10.7,220519,0.0,E,A*13
$GPVTG,10.657,T,10.657,M,0.018,N,0.032,K,A*2B
$GPGGA,011702.00,3354.9988,S,15059.6067,E,1,20,0.6,17.59,M,22.60,M,,*42
$GPRMC,011702.00,A,3354.9987798,S,15059.6066830,E,0.023,345.3,220519,0.0,E,A*2D
$GPVTG,345.288,T,345.288,M,0.023,N,0.043,K,A*25
$GPGGA,011703.00,3354.9988,S,15059.6067,E,1,20,0.6,17.57,M,22.60,M,,*4D
$GPRMC,011703.00,A,3354.9987770,S,15059.6066832,E,0.045,250.4,220519,0.0,E,A*2A
$GPVTG,250.376,T,250.376,M,0.045,N,0.084,K,A*2E
$GPGGA,011704.00,3354.9987,S,15059.6066,E,1,21,0.6,17.84,M,22.60,M,,*4B
$GPRMC,011704.00,A,3354.9987217,S,15059.6065910,E,0.011,157.8,220519,0.0,E,A*22
$GPVTG,157.821,T,157.821,M,0.011,N,0.020,K,A*21
$GPGGA,011705.00,3354.9988,S,15059.6067,E,1,20,0.6,17.57,M,22.60,M,,*4B
$GPRMC,011705.00,A,3354.9987715,S,15059.6066788,E,0.025,335.4,220519,0.0,E,A*25
$GPVTG,335.407,T,335.407,M,0.025,N,0.046,K,A*26
$GPGGA,011706.00,3354.9988,S,15059.6067,E,1,20,0.6,17.56,M,22.60,M,,*49
$GPRMC,011706.00,A,3354.9987710,S,15059.6066738,E,0.017,319.6,220519,0.0,E,A*25
$GPVTG,319.551,T,319.551,M,0.017,N,0.031,K,A*27
$GPGGA,011707.00,3354.9988,S,15059.6067,E,1,20,0.6,17.55,M,22.60,M,,*4B
$GPRMC,011707.00,A,3354.9987683,S,15059.6066671,E,0.046,334.7,220519,0.0,E,A*29
$GPVTG,334.720,T,334.720,M,0.046,N,0.085,K,A*2C
$GPGGA,011708.00,3354.9988,S,15059.6067,E,1,20,0.6,17.54,M,22.60,M,,*45
$GPRMC,011708.00,A,3354.9987625,S,15059.6066606,E,0.006,354.6,220519,0.0,E,A*29
$GPVTG,354.580,T,354.580,M,0.006,N,0.011,K,A*25
$GPGGA,011709.00,3354.9987,S,15059.6066,E,1,21,0.6,17.78,M,22.60,M,,*45
$GPRMC,011709.00,A,3354.9987080,S,15059.6065716,E,0.034,123.5,220519,0.0,E,A*22
$GPVTG,123.549,T,123.549,M,0.034,N,0.063,K,A*21
$GPGGA,011710.00,3354.9988,S,15059.6067,E,1,20,0.6,17.51,M,22.60,M,,*49
$GPRMC,011710.00,A,3354.9987596,S,15059.6066554,E,0.042,27.9,220519,0.0,E,A*17
$GPVTG,27.869,T,27.869,M,0.042,N,0.078,K,A*2A
$GPGGA,011711.00,3354.9988,S,15059.6067,E,1,20,0.6,17.49,M,22.60,M,,*41
$GPRMC,011711.00,A,3354.9987584,S,15059.6066518,E,0.035,224.3,220519,0.0,E,A*26
$GPVTG,224.320,T,224.320,M,0.035,N,0.065,K,A*26
$GPGGA,011712.00,3354.9988,S,15059.6066,E,1,20,0.6,17.46,M,22.60,M,,*4C
$GPRMC,011712.00,A,3354.9987536,S,15059.6066493,E,0.051,38.4,220519,0.0,E,A*14
$GPVTG,38.368,T,38.368,M,0.051,N,0.094,K,A*2A
$GPGGA,011713.00,3354.9987,S,15059.6066,E,1,20,0.6,17.44,M,22.60,M,,*40
$GPRMC,011713.00,A,3354.9987475,S,15059.6066439,E,0.015,181.7,220519,0.0,E,A*23
$GPVTG,181.680,T,181.680,M,0.015,N,0.028,K,A*2D
$GPGGA,011714.00,3354.9987,S,15059.6066,E,1,20,0.6,17.42,M,22.60,M,,*41
$GPRMC,011714.00,A,3354.9987451,S,15059.6066395,E,0.007,144.0,220519,0.0,E,A*2E
$GPVTG,143.970,T,143.970,M,0.007,N,0.013,K,A*26
$GPGGA,011715.00,3354.9987,S,15059.6065,E,1,21,0.6,17.68,M,22.60,M,,*4A
$GPRMC,011715.00,A,3354.9986844,S,15059.6065399,E,0.028,138.1,220519,0.0,E,A*2E
$GPVTG,138.051,T,138.051,M,0.028,N,0.051,K,A*2D
$GPGGA,011716.00,3354.9987,S,15059.6066,E,1,20,0.6,17.39,M,22.60,M,,*4F
$GPRMC,011716.00,A,3354.9987381,S,15059.6066323,E,0.064,351.0,220519,0.0,E,A*28
$GPVTG,351.033,T,351.033,M,0.064,N,0.118,K,A*29
$GPGGA,011717.00,3354.9987,S,15059.6066,E,1,20,0.6,17.36,M,22.60,M,,*41
$GPRMC,011717.00,A,3354.9987316,S,15059.6066349,E,0.058,148.9,220519,0.0,E,A*27
$GPVTG,148.900,T,148.900,M,0.058,N,0.107,K,A*28
$GPGGA,011718.00,3354.9987,S,15059.6066,E,1,20,0.6,17.34,M,22.60,M,,*4C
$GPRMC,011718.00,A,3354.9987310,S,15059.6066309,E,0.031,114.0,220519,0.0,E,A*25
$GPVTG,114.014,T,114.014,M,0.031,N,0.058,K,A*2C
$GPGGA,011719.00,3354.9987,S,15059.6066,E,1,20,0.6,17.34,M,22.60,M,,*4D
$GPRMC,011719.00,A,3354.9987321,S,15059.6066236,E,0.022,354.7,220519,0.0,E,A*28
$GPVTG,354.712,T,354.712,M,0.022,N,0.041,K,A*26
$GPGGA,011720.00,3354.9987,S,15059.6066,E,1,20,0.6,17.33,M,22.60,M,,*40
$GPRMC,011720.00,A,3354.9987280,S,15059.6066216,E,0.042,169.9,220519,0.0,E,A*2E
$GPVTG,169.924,T,169.924,M,0.042,N,0.078,K,A*2A
$GPGGA,011721.00,3354.9986,S,15059.6069,E,1,20,0.6,18.84,M,22.60,M,,*4C
$GPRMC,011721.00,A,3354.9985818,S,15059.6069376,E,0.023,236.8,220519,0.0,E,A*21
$GPVTG,236.775,T,236.775,M,0.023,N,0.043,K,A*25
$GPGGA,011722.00,3354.9986,S,15059.6069,E,1,20,0.6,18.81,M,22.60,M,,*4A
$GPRMC,011722.00,A,3354.9985769,S,15059.6069347,E,0.025,62.1,220519,0.0,E,A*15
$GPVTG,62.101,T,62.101,M,0.025,N,0.047,K,A*27
$GPGGA,011723.00,3354.9986,S,15059.6069,E,1,20,0.6,18.79,M,22.60,M,,*4C
$GPRMC,011723.00,A,3354.9985736,S,15059.6069347,E,0.009,322.4,220519,0.0,E,A*22
$GPVTG,322.358,T,322.358,M,0.009,N,0.017,K,A*2C
$GPGGA,011724.00,3354.9986,S,15059.6069,E,1,20,0.6,18.78,M,22.60,M,,*4A
$GPRMC,011724.00,A,3354.9985673,S,15059.6069280,E,0.019,353.6,220519,0.0,E,A*2A
$GPVTG,353.555,T,353.555,M,0.019,N,0.036,K,A*2E
$GPGGA,011725.00,3354.9986,S,15059.6069,E,1,20,0.6,18.76,M,22.60,M,,*45
$GPRMC,011725.00,A,3354.9985670,S,15059.6069272,E,0.008,247.4,220519,0.0,E,A*23
$GPVTG,247.408,T,247.408,M,0.008,N,0.014,K,A*2E
$GPGGA,011726.00,3354.9986,S,15059.6069,E,1,20,0.6,18.73,M,22.60,M,,*43
$GPRMC,011726.00,A,3354.9985609,S,15059.6069294,E,0.011,84.4,220519,0.0,E,A*13
$GPVTG,84.374,T,84.374,M,0.011,N,0.021,K,A*20
$GPGGA,011727.00,3354.9986,S,15059.6069,E,1,20,0.6,18.71,M,22.60,M,,*40
$GPRMC,011727.00,A,3354.9985522,S,15059.6069276,E,0.019,119.2,220519,0.0,E,A*2F
$GPVTG,119.221,T,119.221,M,0.019,N,0.034,K,A*2C
$GPGGA,011728.00,3354.9986,S,15059.6069,E,1,20,0.6,18.71,M,22.60,M,,*4F
$GPRMC,011728.00,A,3354.9985562,S,15059.6069208,E,0.065,224.4,220519,0.0,E,A*2D
$GPVTG,224.423,T,224.423,M,0.065,N,0.120,K,A*23
$GPGGA,011729.00,3354.9985,S,15059.6069,E,1,21,0.6,18.74,M,22.60,M,,*49
$GPRMC,011729.00,A,3354.9985433,S,15059.6068984,E,0.015,78.1,220519,0.0,E,A*1E
$GPVTG,78.143,T,78.143,M,0.015,N,0.027,K,A*22
$GPGGA,011730.00,3354.9985,S,15059.6069,E,1,20,0.6,18.67,M,22.60,M,,*42
$GPRMC,011730.00,A,3354.9985472,S,15059.6069142,E,0.033,217.9,220519,0.0,E,A*27
$GPVTG,217.930,T,217.930,M,0.033,N,0.061,K,A*24
$GPGGA,011731.00,3354.9985,S,15059.6069,E,1,21,0.6,18.73,M,22.60,M,,*47
$GPRMC,011731.00,A,3354.9985235,S,15059.6068816,E,0.034,74.6,220519,0.0,E,A*15
$GPVTG,74.643,T,74.643,M,0.034,N,0.062,K,A*20
$GPGGA,011732.00,3354.9985,S,15059.6069,E,1,20,0.6,18.61,M,22.60,M,,*46
$GPRMC,011732.00,A,3354.9985417,S,15059.6069103,E,0.006,186.0,220519,0.0,E,A*27
$GPVTG,186.007,T,186.007,M,0.006,N,0.011,K,A*25
$GPGGA,011733.00,3354.9985,S,15059.6069,E,1,21,0.6,18.65,M,22.60,M,,*42
$GPRMC,011733.00,A,3354.9985267,S,15059.6068869,E,0.007,205.9,220519,0.0,E,A*23
$GPVTG,205.857,T,205.857,M,0.007,N,0.013,K,A*26
$GPGGA,011734.00,3354.9985,S,15059.6069,E,1,20,0.6,18.62,M,22.60,M,,*43
$GPRMC,011734.00,A,3354.9985477,S,15059.6068896,E,0.005,78.1,220519,0.0,E,A*11
$GPVTG,78.087,T,78.087,M,0.005,N,0.009,K,A*2F
$GPGGA,011735.00,3354.9985,S,15059.6069,E,1,21,0.6,18.62,M,22.60,M,,*43
$GPRMC,011735.00,A,3354.9985387,S,15059.6068708,E,0.011,323.7,220519,0.0,E,A*2E
$GPVTG,323.666,T,323.666,M,0.011,N,0.020,K,A*21
$GPGGA,011736.00,3354.9985,S,15059.6067,E,1,21,0.6,18.97,M,22.60,M,,*44
$GPRMC,011736.00,A,3354.9984619,S,15059.6067402,E,0.041,78.1,220519,0.0,E,A*16
$GPVTG,78.071,T,78.071,M,0.041,N,0.075,K,A*24
$GPGGA,011737.00,3354.9985,S,15059.6069,E,1,21,0.6,18.56,M,22.60,M,,*46
$GPRMC,011737.00,A,3354.9985292,S,15059.6068582,E,0.034,309.5,220519,0.0,E,A*24
$GPVTG,309.451,T,309.451,M,0.034,N,0.063,K,A*21
$GPGGA,011738.00,3354.9986,S,15059.6069,E,1,21,0.6,18.29,M,22.60,M,,*42
$GPRMC,011738.00,A,3354.9985779,S,15059.6069363,E,0.025,148.0,220519,0.0,E,A*21
$GPVTG,148.039,T,148.039,M,0.025,N,0.046,K,A*26
$GPGGA,011739.00,3354.9986,S,15059.6070,E,1,21,0.6,18.20,M,22.60,M,,*42
$GPRMC,011739.00,A,3354.9985960,S,15059.6069565,E,0.030,347.1,220519,0.0,E,A*2E
$GPVTG,347.103,T,347.103,M,0.030,N,0.056,K,A*23
$GPGGA,011740.00,3354.9986,S,15059.6069,E,1,21,0.6,18.28,M,22.60,M,,*4C
$GPRMC,011740.00,A,3354.9985734,S,15059.6069125,E,0.058,179.7,220519,0.0,E,A*28
$GPVTG,179.715,T,179.715,M,0.058,N,0.108,K,A*27
$GPGGA,011741.00,3354.9986,S,15059.6069,E,1,21,0.6,18.38,M,22.60,M,,*4C
$GPRMC,011741.00,A,3354.9985524,S,15059.6068654,E,0.018,278.6,220519,0.0,E,A*2D
$GPVTG,278.600,T,278.600,M,0.018,N,0.033,K,A*2A
$GPGGA,011742.00,3354.9985,S,15059.6068,E,1,21,0.6,18.38,M,22.60,M,,*4D
$GPRMC,011742.00,A,3354.9985440,S,15059.6068484,E,0.044,311.2,220519,0.0,E,A*21
$GPVTG,311.168,T,311.168,M,0.044,N,0.082,K,A*29
$GPGGA,011743.00,3354.9985,S,15059.6068,E,1,21,0.6,18.38,M,22.60,M,,*4C
$GPRMC,011743.00,A,3354.9985271,S,15059.6068210,E,0.030,358.3,220519,0.0,E,A*20
$GPVTG,358.338,T,358.338,M,0.030,N,0.055,K,A*20
$GPGGA,011744.00,3354.9985,S,15059.6068,E,1,21,0.6,18.29,M,22.60,M,,*4B
$GPRMC,011744.00,A,3354.9985405,S,15059.6068320,E,0.018,276.2,220519,0.0,E,A*26
$GPVTG,276.198,T,276.198,M,0.018,N,0.034,K,A*2D
$GPGGA,011745.00,3354.9985,S,15059.6068,E,1,21,0.6,18.30,M,22.60,M,,*42
$GPRMC,011745.00,A,3354.9985368,S,15059.6068187,E,0.018,25.1,220519,0.0,E,A*13
$GPVTG,25.098,T,25.098,M,0.018,N,0.033,K,A*2A
$GPGGA,011746.00,3354.9985,S,15059.6068,E,1,21,0.6,18.33,M,22.60,M,,*42
$GPRMC,011746.00,A,3354.9985438,S,15059.6067894,E,0.002,354.9,220519,0.0,E,A*20
$GPVTG,354.898,T,354.898,M,0.002,N,0.004,K,A*25
$GPGGA,011747.00,3354.9986,S,15059.6068,E,1,21,0.6,18.21,M,22.60,M,,*43
$GPRMC,011747.00,A,3354.9985729,S,15059.6067698,E,0.025,180.3,220519,0.0,E,A*24
$GPVTG,180.278,T,180.278,M,0.025,N,0.045,K,A*25
$GPGGA,011748.00,3354.9986,S,15059.6068,E,1,21,0.6,18.20,M,22.60,M,,*4D
$GPRMC,011748.00,A,3354.9985645,S,15059.6067578,E,0.034,196.8,220519,0.0,E,A*21
$GPVTG,196.774,T,196.774,M,0.034,N,0.063,K,A*21
$GPGGA,011749.00,3354.9986,S,15059.6068,E,1,21,0.6,18.06,M,22.60,M,,*48
$GPRMC,011749.00,A,3354.9985714,S,15059.6067836,E,0.040,293.5,220519,0.0,E,A*2A
$GPVTG,293.509,T,293.509,M,0.040,N,0.074,K,A*24
$GPGGA,011750.00,3354.9986,S,15059.6068,E,1,21,0.6,18.03,M,22.60,M,,*45
$GPRMC,011750.00,A,3354.9985675,S,15059.6067740,E,0.010,273.7,220519,0.0,E,A*23
$GPVTG,273.661,T,273.661,M,0.010,N,0.019,K,A*2A
$GPGGA,011751.00,3354.9986,S,15059.6067,E,1,21,0.6,17.83,M,22.60,M,,*4C
$GPRMC,011751.00,A,3354.9986131,S,15059.6067381,E,0.005,32.2,220519,0.0,E,A*19
$GPVTG,32.228,T,32.228,M,0.005,N,0.010,K,A*27
$GPGGA,011752.00,3354.9986,S,15059.6067,E,1,21,0.6,17.80,M,22.60,M,,*4C
$GPRMC,011752.00,A,3354.9986107,S,15059.6067333,E,0.050,323.9,220519,0.0,E,A*2E
$GPVTG,323.874,T,323.874,M,0.050,N,0.093,K,A*2C
$GPGGA,011753.00,3354.9986,S,15059.6068,E,1,21,0.6,17.71,M,22.60,M,,*4C
$GPRMC,011753.00,A,3354.9986255,S,15059.6067674,E,0.032,272.9,220519,0.0,E,A*2C
$GPVTG,272.940,T,272.940,M,0.032,N,0.059,K,A*2E
$GPGGA,011754.00,3354.9986,S,15059.6067,E,1,21,0.6,17.73,M,22.60,M,,*46
$GPRMC,011754.00,A,3354.9986186,S,15059.6067451,E,0.045,259.1,220519,0.0,E,A*22
$GPVTG,259.053,T,259.053,M,0.045,N,0.084,K,A*2E
$GPGGA,011755.00,3354.9986,S,15059.6067,E,1,21,0.6,17.71,M,22.60,M,,*45
$GPRMC,011755.00,A,3354.9986183,S,15059.6067384,E,0.023,281.4,220519,0.0,E,A*29
$GPVTG,281.417,T,281.417,M,0.023,N,0.043,K,A*25
$GPGGA,011756.00,3354.9986,S,15059.6067,E,1,21,0.6,17.67,M,22.60,M,,*41
$GPRMC,011756.00,A,3354.9986216,S,15059.6067403,E,0.011,202.5,220519,0.0,E,A*26
$GPVTG,202.484,T,202.484,M,0.011,N,0.021,K,A*20
$GPGGA,011757.00,3354.9986,S,15059.6068,E,1,21,0.6,17.58,M,22.60,M,,*43
$GPRMC,011757.00,A,3354.9986357,S,15059.6067607,E,0.031,290.9,220519,0.0,E,A*20
$GPVTG,290.932,T,290.932,M,0.031,N,0.057,K,A*23
$GPGGA,011758.00,3354.9986,S,15059.6068,E,1,21,0.6,17.51,M,22.60,M,,*45
$GPRMC,011758.00,A,3354.9986393,S,15059.6067692,E,0.012,341.3,220519,0.0,E,A*2D
$GPVTG,341.286,T,341.286,M,0.012,N,0.023,K,A*21
$GPGGA,011759.00,3354.9986,S,15059.6068,E,1,21,0.6,17.51,M,22.60,M,,*44
$GPRMC,011759.00,A,3354.9986381,S,15059.6067575,E,0.022,294.1,220519,0.0,E,A*2D
$GPVTG,294.112,T,294.112,M,0.022,N,0.041,K,A*26
$GPGGA,011800.00,3354.9986,S,15059.6067,E,1,21,0.6,17.55,M,22.60,M,,*4C
$GPRMC,011800.00,A,3354.9986191,S,15059.6067386,E,0.026,335.4,220519,0.0,E,A*2C
$GPVTG,335.398,T,335.398,M,0.026,N,0.048,K,A*2B
$GPGGA,011801.00,3354.9986,S,15059.6067,E,1,21,0.6,17.50,M,22.60,M,,*48
$GPRMC,011801.00,A,3354.9986257,S,15059.6067467,E,0.031,107.2,220519,0.0,E,A*2F
$GPVTG,107.183,T,107.183,M,0.031,N,0.058,K,A*2C
$GPGGA,011802.00,3354.9986,S,15059.6067,E,1,21,0.6,17.47,M,22.60,M,,*4D
$GPRMC,011802.00,A,3354.9986117,S,15059.6067409,E,0.044,235.0,220519,0.0,E,A*21
$GPVTG,235.018,T,235.018,M,0.044,N,0.081,K,A*2A
$GPGGA,011803.00,3354.9986,S,15059.6068,E,1,21,0.6,17.41,M,22.60,M,,*45
$GPRMC,011803.00,A,3354.9986204,S,15059.6067506,E,0.048,328.2,220519,0.0,E,A*2C
$GPVTG,328.195,T,328.195,M,0.048,N,0.089,K,A*2E
$GPGGA,011804.00,3354.9986,S,15059.6068,E,1,21,0.6,17.36,M,22.60,M,,*42
$GPRMC,011804.00,A,3354.9986272,S,15059.6067570,E,0.013,158.3,220519,0.0,E,A*21
$GPVTG,158.253,T,158.253,M,0.013,N,0.025,K,A*26
$GPGGA,011805.00,3354.9986,S,15059.6068,E,1,21,0.6,17.32,M,22.60,M,,*47
$GPRMC,011805.00,A,3354.9986308,S,15059.6067563,E,0.031,241.1,220519,0.0,E,A*27
$GPVTG,241.082,T,241.082,M,0.031,N,0.057,K,A*23
$GPGGA,011806.00,3354.9986,S,15059.6068,E,1,21,0.6,17.28,M,22.60,M,,*4F
$GPRMC,011806.00,A,3354.9986372,S,15059.6067618,E,0.041,299.9,220519,0.0,E,A*2C
$GPVTG,299.851,T,299.851,M,0.041,N,0.076,K,A*27
$GPGGA,011807.00,3354.9986,S,15059.6068,E,1,21,0.6,17.24,M,22.60,M,,*42
$GPRMC,011807.00,A,3354.9986414,S,15059.6067654,E,0.022,283.3,220519,0.0,E,A*26
$GPVTG,283.314,T,283.314,M,0.022,N,0.040,K,A*27
$GPGGA,011808.00,3354.9986,S,15059.6068,E,1,21,0.6,17.24,M,22.60,M,,*4D
$GPRMC,011808.00,A,3354.9986367,S,15059.6067554,E,0.017,321.5,220519,0.0,E,A*20
$GPVTG,321.530,T,321.530,M,0.017,N,0.031,K,A*27
$GPGGA,011809.00,3354.9986,S,15059.6068,E,1,21,0.6,17.21,M,22.60,M,,*49
$GPRMC,011809.00,A,3354.9986392,S,15059.6067540,E,0.047,98.1,220519,0.0,E,A*1E
$GPVTG,98.113,T,98.113,M,0.047,N,0.087,K,A*2F
$GPGGA,011810.00,3354.9986,S,15059.6068,E,1,21,0.6,17.17,M,22.60,M,,*44
$GPRMC,011810.00,A,3354.9986331,S,15059.6067513,E,0.051,87.7,220519,0.0,E,A*16
$GPVTG,87.719,T,87.719,M,0.051,N,0.095,K,A*2B
